code,name,latitude,longitude,country,countryRegion,population,regionCode,region,date
3040051,les Escaldes,42.50729,1.53414,AD,8,15853,1033,Europe/Andorra,10/15/08
3041563,Andorra la Vella,42.50779,1.52109,AD,7,20430,1037,Europe/Andorra,5/30/10
290594,Umm al Qaywayn,25.56473,55.55517,AE,7,44411,2,Asia/Dubai,11/3/12
291074,Ra's al Khaymah,25.78953,55.9432,AE,5,115949,2,Asia/Dubai,11/30/12
291696,Khawr Fakkan,25.33132,56.34199,AE,6,33575,20,Asia/Dubai,11/3/12
292223,Dubai,25.25817,55.30472,AE,3,1137347,11,Asia/Dubai,8/19/12
292239,Diba,25.61955,56.27291,AE,4,26395,4,Asia/Dubai,7/6/13
292672,Sharjah,25.33737,55.41206,AE,6,543733,6,Asia/Dubai,3/5/13
292688,Ar Ruways,24.11028,52.73056,AE,1,16e3,16,Asia/Dubai,11/3/12
292878,Al Fujayrah,25.11641,56.34141,AE,4,62415,15,Asia/Dubai,1/18/12
292913,Al Ain,24.19167,55.76056,AE,1,408733,275,Asia/Dubai,3/17/13
292932,Ajman,25.41111,55.43504,AE,2,226172,4,Asia/Dubai,3/24/13
292953,Adh Dhayd,25.28812,55.88157,AE,6,24716,114,Asia/Dubai,1/18/12
292968,Abu Dhabi,24.46667,54.36667,AE,1,603492,6,Asia/Dubai,1/18/12
1120985,Zaranj,30.96667,61.88333,AF,19,49851,486,Asia/Kabul,8/2/13
1123004,Taloqan,36.73605,69.53451,AF,26,64256,801,Asia/Kabul,5/11/13
1125155,Shindand,33.30294,62.1474,AF,11,29264,1071,Asia/Kabul,2/28/12
1125444,Shibirghan,36.66757,65.7529,AF,31,55641,360,Asia/Kabul,6/4/13
1125896,Shahrak,34.10738,64.3052,AF,9,15967,2357,Asia/Kabul,2/28/12
1127110,Sar-e Pul,36.21544,65.93249,AF,33,52121,636,Asia/Kabul,1/16/12
1127628,Sang-e Charak,35.84972,66.43694,AF,33,15377,1483,Asia/Kabul,1/27/06
1127768,Aibak,36.26468,68.01551,AF,32,47823,969,Asia/Kabul,1/16/12
1128265,Rustaq,37.12604,69.83045,AF,26,25636,1314,Asia/Kabul,2/28/12
1129516,Qarqin,37.41853,66.04358,AF,31,15018,263,Asia/Kabul,2/28/12
1129648,Qarawul,37.21959,68.7802,AF,24,24544,337,Asia/Kabul,9/5/13
1130490,Pul-e Khumri,35.94458,68.71512,AF,3,56369,638,Asia/Kabul,1/16/12
1131316,Paghman,34.58787,68.95091,AF,13,49157,2328,Asia/Kabul,8/4/12
1131833,Nili,33.72178,66.13023,AF,41,30058,2069,Asia/Kabul,8/2/13
1132495,Nahrin,36.0649,69.13343,AF,3,22363,1138,Asia/Kabul,2/28/12
1133453,Maymana,35.92139,64.78361,AF,7,75900,864,Asia/Kabul,8/16/10
1133574,Mehtar Lam,34.67139,70.20944,AF,35,17345,795,Asia/Kabul,1/16/12
1133616,Mazar-e Sharif,36.70904,67.11087,AF,30,303282,361,Asia/Kabul,1/16/12
1134720,Lashkar Gah,31.59382,64.37161,AF,10,43934,786,Asia/Kabul,4/11/13
1135158,Kushk,33.29565,61.95221,AF,11,16952,1115,Asia/Kabul,1/16/12
1135689,Kunduz,36.72896,68.857,AF,24,161902,402,Asia/Kabul,1/16/12
1136469,Khost,33.33951,69.92041,AF,37,96123,1183,Asia/Kabul,1/16/12
1136575,Khulm,36.69736,67.69826,AF,30,64933,445,Asia/Kabul,2/28/12
1136863,Khash,31.52919,62.79055,AF,19,15133,579,Asia/Kabul,1/16/12
1137168,Khanabad,36.6825,69.11556,AF,24,71531,503,Asia/Kabul,3/3/09
1137807,Karukh,34.48108,62.5863,AF,11,17484,1340,Asia/Kabul,2/28/12
1138336,Kandahar,31.61332,65.71013,AF,23,391190,1007,Asia/Kabul,5/11/13
1138958,Kabul,34.52813,69.17233,AF,13,3043532,1798,Asia/Kabul,5/30/10
1139715,Jalalabad,34.42647,70.45153,AF,18,200331,575,Asia/Kabul,1/16/12
1139807,Jabal os Saraj,35.11833,69.23778,AF,40,15032,1612,Asia/Kabul,3/29/10
1140026,Herat,34.34817,62.19967,AF,11,272806,927,Asia/Kabul,5/18/13
1141089,Ghormach,35.73062,63.78264,AF,2,3e4,659,Asia/Kabul,12/21/11
1141269,Ghazni,33.55391,68.42096,AF,8,141e3,2179,Asia/Kabul,5/9/13
1141540,Gereshk,31.82089,64.57005,AF,10,43588,830,Asia/Kabul,2/28/12
1141857,Gardez,33.59744,69.22592,AF,36,103601,2308,Asia/Kabul,1/16/12
1142170,Fayzabad,37.11664,70.58002,AF,1,44421,1210,Asia/Kabul,8/16/10
1142264,Farah,32.37451,62.11638,AF,6,43561,662,Asia/Kabul,1/16/12
1142404,Kafir Qala,34.66667,61.06667,AF,11,18086,726,Asia/Kabul,1/16/12
1145352,Charikar,35.01361,69.17139,AF,40,53676,1554,Asia/Kabul,1/29/10
1147066,Baraki Barak,33.96744,68.9492,AF,17,22305,1940,Asia/Kabul,2/7/13
1147242,Bamyan,34.82156,67.82734,AF,5,61863,2550,Asia/Kabul,8/2/13
1147290,Balkh,36.75635,66.8972,AF,30,114883,348,Asia/Kabul,2/28/12
1147540,Baghlan,36.13068,68.70829,AF,3,108449,531,Asia/Kabul,2/28/12
1148106,Art Khwajah,37.08571,69.47958,AF,26,18623,481,Asia/Kabul,1/16/12
1148205,Asmar,35.03333,71.35809,AF,34,15708,913,Asia/Kabul,2/28/12
1148311,Asadabad,34.87311,71.14697,AF,34,48400,837,Asia/Kabul,2/24/12
1148658,Andkhoy,36.95293,65.12376,AF,7,29208,306,Asia/Kabul,2/28/12
1429434,Bazarak,35.31292,69.51519,AF,42,65e3,1965,Asia/Kabul,8/2/13
1469706,Markaz-e Woluswali-ye Achin,34.12583,70.70778,AF,18,15098,972,Asia/Kabul,8/10/10
6692413,Cool urhajo,34.26545,67.34516,AF,5,58525,2884,Asia/Kabul,5/19/08
3576022,Saint John's,17.11667,-61.85,AG,4,24226,6,America/Antigua,1/18/12
3573374,The Valley,18.21704,-63.05783,AI,0,2035,19,America/Anguilla,2/2/13
363243,Sarande,39.87556,20.00528,AL,51,15147,32,Europe/Tirane,6/14/12
782661,Kukes,42.07694,20.42194,AL,47,17832,351,Europe/Tirane,1/19/12
782756,Korce,40.61861,20.78083,AL,46,58259,869,Europe/Tirane,11/26/12
783148,Gjirokaster,40.07583,20.13889,AL,45,23437,286,Europe/Tirane,1/19/12
783263,Elbasan,41.1125,20.08222,AL,43,100903,128,Europe/Tirane,1/19/12
783493,Burrel,41.61028,20.00889,AL,41,15405,315,Europe/Tirane,6/2/12
3183719,Vlore,40.46667,19.48972,AL,51,89546,2,Europe/Tirane,1/19/12
3183875,Tirana,41.3275,19.81889,AL,50,374801,113,Europe/Tirane,2/28/12
3184081,Shkoder,42.06828,19.51258,AL,49,88245,12,Europe/Tirane,1/3/13
3184517,Patos Fshat,40.64278,19.65083,AL,44,22679,157,Europe/Tirane,1/19/12
3184862,Lushnje,40.94194,19.705,AL,44,41469,22,Europe/Tirane,6/5/12
3184935,Lezhe,41.78361,19.64361,AL,48,18695,7,Europe/Tirane,1/19/12
3185012,Lac,41.63556,19.71306,AL,48,24825,33,Europe/Tirane,6/11/12
3185060,Kucove,40.80028,19.91667,AL,40,18166,58,Europe/Tirane,6/2/12
3185082,Kruje,41.50917,19.79278,AL,42,21286,509,Europe/Tirane,6/1/12
3185211,Kavaje,41.18556,19.55694,AL,50,29354,19,Europe/Tirane,6/13/12
3185670,Fier-Cifci,40.71667,19.56667,AL,44,60995,17,Europe/Tirane,5/30/07
3185672,Fier,40.72389,19.55611,AL,44,56297,20,Europe/Tirane,1/19/12
3185728,Durres,41.32306,19.44139,AL,42,122034,13,Europe/Tirane,1/19/12
3186084,Berat,40.70583,19.95222,AL,40,46866,66,Europe/Tirane,6/3/12
174875,Kapan,39.20754,46.40576,AM,8,33160,774,Asia/Yerevan,1/17/12
174895,Goris,39.51288,46.33816,AM,8,20379,1377,Asia/Yerevan,1/17/12
174972,Hats'avan,39.46405,45.97047,AM,8,15208,1761,Asia/Yerevan,1/17/12
174979,Artashat,39.96144,44.54447,AM,2,20562,830,Asia/Yerevan,1/17/12
174991,Ararat,39.83166,44.70489,AM,2,28832,822,Asia/Yerevan,1/17/12
616052,Yerevan,40.18111,44.51361,AM,11,1093485,994,Asia/Yerevan,1/17/12
616062,Ejmiatsin,40.16557,44.29462,AM,3,49513,877,Asia/Yerevan,1/17/12
616199,Spitak,40.8322,44.2673,AM,6,15059,1548,Asia/Yerevan,1/17/12
616250,Sevan,40.5484,44.94868,AM,4,17083,1921,Asia/Yerevan,1/17/12
616435,Masis,40.06762,44.43591,AM,2,18911,839,Asia/Yerevan,1/17/12
616530,Vanadzor,40.80456,44.4939,AM,6,101098,1344,Asia/Yerevan,1/14/12
616599,Gavarr,40.35398,45.12386,AM,4,21680,1953,Asia/Yerevan,1/17/12
616629,Hrazdan,40.49748,44.7662,AM,5,40795,1762,Asia/Yerevan,3/28/11
616631,Armavir,40.15446,44.03815,AM,3,25963,870,Asia/Yerevan,1/17/12
616635,Gyumri,40.7942,43.84528,AM,7,148381,1549,Asia/Yerevan,1/17/12
616877,Ashtarak,40.2991,44.36204,AM,1,18779,1142,Asia/Yerevan,1/17/12
617026,Abovyan,40.26741,44.62656,AM,5,35673,1409,Asia/Yerevan,1/17/12
145531,Saurimo,-9.66078,20.39155,AO,18,40498,1071,Africa/Luanda,1/17/12
145724,Lucapa,-8.41915,20.74466,AO,17,20115,955,Africa/Luanda,1/17/12
876177,Luau,-10.70727,22.22466,AO,14,18465,1106,Africa/Luanda,1/17/12
2236568,Uige,-7.60874,15.06131,AO,15,60008,825,Africa/Luanda,10/28/11
2236967,Soio,-6.1349,12.36894,AO,16,67491,10,Africa/Luanda,1/17/12
2239001,Nzeto,-7.23116,12.8666,AO,16,18352,19,Africa/Luanda,2/1/12
2239076,N'dalatando,-9.29782,14.91162,AO,5,383100,795,Africa/Luanda,8/2/13
2239520,Mbanza Congo,-6.26703,14.2401,AO,16,24220,544,Africa/Luanda,1/17/12
2239862,Malanje,-9.54015,16.34096,AO,12,87046,1134,Africa/Luanda,10/28/11
2240449,Luanda,-8.83682,13.23432,AO,20,2776168,73,Africa/Luanda,10/27/11
2242001,Caxito,-8.57848,13.66425,AO,19,28224,20,Africa/Luanda,10/28/11
2243271,Cabinda,-5.55,12.2,AO,3,66020,1,Africa/Luanda,1/17/12
3346015,Sumbe,-11.20605,13.84371,AO,6,33277,10,Africa/Luanda,1/17/12
3347019,Mocamedes,-15.19611,12.15222,AO,13,80149,13,Africa/Luanda,6/28/13
3347353,Menongue,-14.6585,17.69099,AO,4,32203,1355,Africa/Luanda,6/8/10
3347719,Luena,-11.78333,19.91667,AO,14,21115,1337,Africa/Luanda,1/17/12
3347762,Lubango,-14.91717,13.4925,AO,9,102541,1760,Africa/Luanda,10/27/11
3347853,Longonjo,-12.90667,15.25333,AO,8,24346,1424,Africa/Luanda,1/17/12
3347939,Lobito,-12.3644,13.53601,AO,1,207932,4,Africa/Luanda,6/9/13
3348078,Cuito,-12.38333,16.93333,AO,2,113624,1715,Africa/Luanda,6/4/13
3348313,Huambo,-12.77611,15.73917,AO,8,226145,1716,Africa/Luanda,6/4/13
3350246,Catumbela,-12.43139,13.54722,AO,1,16977,15,Africa/Luanda,1/17/12
3350372,Catabola,-12.15,17.28333,AO,2,18855,1531,Africa/Luanda,6/4/13
3351014,Camacupa,-12.01667,17.48333,AO,2,19150,1473,Africa/Luanda,1/17/12
3351024,Caluquembe,-13.78333,14.68333,AO,9,30300,1699,Africa/Luanda,1/17/12
3351500,Caala,-12.8525,15.56056,AO,8,21205,1742,Africa/Luanda,1/17/12
3351663,Benguela,-12.57626,13.40547,AO,1,151226,11,Africa/Luanda,10/28/11
3427213,Zarate,-34.09814,-59.02858,AR,1,88781,28,America/Argentina/Buenos_Aires,1/18/12
3427388,Villa Ocampo,-28.48752,-59.35515,AR,21,19101,54,America/Argentina/Cordoba,1/18/12
3427408,Villa Lugano,-34.67907,-58.47262,AR,7,114e3,19,America/Argentina/Buenos_Aires,5/1/13
3427428,Villaguay,-31.8653,-59.02689,AR,8,32027,50,America/Argentina/Cordoba,1/18/12
3427431,Villa Gesell,-37.26394,-56.97304,AR,1,23257,9,America/Argentina/Buenos_Aires,4/25/10
3427761,Tigre,-34.42603,-58.57962,AR,1,31106,8,America/Argentina/Buenos_Aires,3/25/12
3427833,Tandil,-37.32167,-59.13316,AR,1,104325,192,America/Argentina/Buenos_Aires,1/18/12
3428068,San Vicente,-26.61667,-54.13333,AR,14,38247,603,America/Argentina/Cordoba,5/31/10
3428071,Santo Tome,-28.54939,-56.04077,AR,6,22634,81,America/Argentina/Cordoba,1/18/12
3428359,Santa Elena,-30.94768,-59.78696,AR,8,18410,66,America/Argentina/Cordoba,1/18/12
3428577,San Pedro,-26.62207,-54.10842,AR,14,23736,554,America/Argentina/Cordoba,4/19/11
3428708,San Luis del Palmar,-27.5079,-58.55454,AR,6,15347,62,America/Argentina/Cordoba,5/6/12
3428759,San Lorenzo,-28.13306,-58.76733,AR,6,47626,64,America/Argentina/Cordoba,4/19/11
3428975,San Javier,-30.57781,-59.9317,AR,21,15606,27,America/Argentina/Cordoba,4/4/13
3429403,Saladas,-28.25384,-58.62591,AR,6,18349,75,America/Argentina/Cordoba,4/19/11
3429576,Retiro,-34.58333,-58.38333,AR,7,38635,7,America/Argentina/Buenos_Aires,1/18/12
3429577,Resistencia,-27.46056,-58.98389,AR,3,387158,56,America/Argentina/Cordoba,1/18/12
3429594,Reconquista,-29.15,-59.65,AR,21,90184,50,America/Argentina/Cordoba,1/18/12
3429652,Quilmes,-34.72418,-58.25265,AR,1,518788,24,America/Argentina/Buenos_Aires,1/18/12
3429732,Puerto Rico,-26.79598,-55.02402,AR,14,17491,147,America/Argentina/Cordoba,1/18/12
3429777,Puerto Iguazu,-25.59912,-54.57355,AR,14,32038,177,America/Argentina/Cordoba,7/26/10
3429786,Puerto Esperanza,-26.01517,-54.67306,AR,14,15579,152,America/Argentina/Cordoba,1/18/12
3429790,Puerto Eldorado,-26.40842,-54.69463,AR,14,54189,102,America/Argentina/Cordoba,1/18/12
3429886,Posadas,-27.36708,-55.89608,AR,14,312060,127,America/Argentina/Cordoba,2/21/12
3429902,Pontevedra,-34.74974,-58.68696,AR,1,33515,23,America/Argentina/Buenos_Aires,2/2/12
3429949,Pirane,-25.73239,-59.10879,AR,9,19124,86,America/Argentina/Cordoba,2/2/12
3430104,Paso de los Libres,-29.71311,-57.08991,AR,6,43805,70,America/Argentina/Cordoba,1/18/12
3430340,Obera,-27.48706,-55.11994,AR,14,56528,345,America/Argentina/Cordoba,1/18/12
3430443,Necochea,-38.54726,-58.73675,AR,1,80478,20,America/Argentina/Buenos_Aires,1/18/12
3430545,Moron,-34.65344,-58.61975,AR,1,319934,29,America/Argentina/Buenos_Aires,11/18/11
3430598,Monte Caseros,-30.25359,-57.63626,AR,6,24671,53,America/Argentina/Cordoba,1/18/12
3430601,Montecarlo,-26.5662,-54.757,AR,14,22229,205,America/Argentina/Cordoba,1/18/12
3430708,Mercedes,-34.65146,-59.43068,AR,1,52949,43,America/Argentina/Buenos_Aires,2/2/12
3430709,Mercedes,-29.18186,-58.07895,AR,6,30649,98,America/Argentina/Cordoba,1/18/12
3430863,Mar del Plata,-38.00228,-57.55754,AR,1,553935,15,America/Argentina/Buenos_Aires,1/18/12
3430988,Lujan,-34.57028,-59.105,AR,1,81749,27,America/Argentina/Buenos_Aires,1/18/12
3432043,La Plata,-34.92145,-57.95453,AR,1,694167,27,America/Argentina/Buenos_Aires,1/18/12
3432079,La Paz,-30.74485,-59.64566,AR,8,24716,56,America/Argentina/Cordoba,1/18/12
3433349,Jardin America,-27.04346,-55.22698,AR,14,24905,227,America/Argentina/Cordoba,5/31/10
3433658,Gualeguaychu,-33.00938,-58.51722,AR,8,78676,14,America/Argentina/Cordoba,5/8/13
3433663,Gualeguay,-33.14156,-59.30966,AR,8,33120,14,America/Argentina/Cordoba,1/18/12
3433715,Goya,-29.14003,-59.26256,AR,6,70245,44,America/Argentina/Cordoba,1/18/12
3433753,Gobernador Ingeniero Valentin Virasoro,-28.05,-56.03333,AR,6,28756,133,America/Argentina/Cordoba,1/18/12
3433803,General Jose de San Martin,-26.53743,-59.34158,AR,3,31758,81,America/Argentina/Cordoba,1/18/12
3433836,Garupa,-27.48171,-55.82921,AR,14,28814,108,America/Argentina/Cordoba,2/2/12
3433899,Formosa,-26.17753,-58.17814,AR,9,221383,70,America/Argentina/Cordoba,1/18/12
3433901,Fontana,-27.41813,-59.02392,AR,3,26745,54,America/Argentina/Cordoba,2/2/12
3433956,Federal,-30.95465,-58.78326,AR,8,16333,67,America/Argentina/Cordoba,1/18/12
3434095,Esquina,-30.01444,-59.52719,AR,6,26399,44,America/Argentina/Cordoba,2/2/12
3434291,El Soberbio,-27.29846,-54.19877,AR,14,19571,156,America/Argentina/Cordoba,1/18/12
3435038,Dolores,-36.31322,-57.67918,AR,1,25190,14,America/Argentina/Buenos_Aires,4/19/11
3435103,Curuzu Cuatia,-29.79171,-58.0546,AR,6,36390,79,America/Argentina/Cordoba,5/9/13
3435217,Corrientes,-27.4806,-58.8341,AR,6,339067,63,America/Argentina/Cordoba,1/18/12
3435261,Concordia,-31.39296,-58.02089,AR,8,145210,30,America/Argentina/Cordoba,1/18/12
3435264,Concepcion del Uruguay,-32.48249,-58.23722,AR,8,67895,16,America/Argentina/Cordoba,1/18/12
3435356,Colegiales,-34.57365,-58.44924,AR,7,57e3,27,America/Argentina/Buenos_Aires,11/28/10
3435486,Chajari,-30.75048,-57.97962,AR,8,30655,58,America/Argentina/Cordoba,1/18/12
3435810,Campana,-34.16874,-58.95914,AR,1,81612,17,America/Argentina/Buenos_Aires,1/18/12
3435910,Buenos Aires,-34.61315,-58.37723,AR,7,13076300,31,America/Argentina/Buenos_Aires,1/12/12
3436124,Barranqueras,-27.48299,-58.93579,AR,3,50823,52,America/Argentina/Cordoba,1/18/12
3436199,Azul,-36.77698,-59.85854,AR,1,53941,141,America/Argentina/Buenos_Aires,1/18/12
3436230,Avellaneda,-29.11761,-59.65834,AR,21,23077,52,America/Argentina/Cordoba,1/18/12
3436287,Aristobulo del Valle,-27.09625,-54.89626,AR,14,20683,494,America/Argentina/Cordoba,2/2/12
3832132,Zapala,-38.89916,-70.05442,AR,15,31534,1015,America/Argentina/Salta,1/18/12
3832260,Yerba Buena,-26.81667,-65.31667,AR,24,50783,515,America/Argentina/Tucuman,1/18/12
3832647,Villa Regina,-39.1,-67.06667,AR,16,31209,201,America/Argentina/Salta,1/18/12
3832653,Villa Paula de Sarmiento,-31.4933,-68.53838,AR,18,19092,646,America/Argentina/San_Juan,1/18/12
3832662,Villa Nueva,-32.43293,-63.24763,AR,5,16841,204,America/Argentina/Cordoba,4/19/11
3832694,Villa Maria,-32.40751,-63.24016,AR,5,92453,202,America/Argentina/Cordoba,1/18/12
3832756,Villa Dolores,-31.94585,-65.18958,AR,5,28009,523,America/Argentina/Cordoba,1/18/12
3832778,Villa Constitucion,-33.22778,-60.3297,AR,21,44271,32,America/Argentina/Cordoba,1/18/12
3832791,Villa Carlos Paz,-31.42414,-64.49778,AR,5,69451,666,America/Argentina/Cordoba,1/18/12
3832811,Villa Angela,-27.57383,-60.71526,AR,3,43511,79,America/Argentina/Cordoba,2/2/12
3832815,Villa Allende,-31.29458,-64.29538,AR,5,21683,505,America/Argentina/Cordoba,4/4/13
3832899,Viedma,-40.81345,-62.99668,AR,16,48940,8,America/Argentina/Salta,1/18/12
3832934,Victoria,-32.61841,-60.15478,AR,8,25139,52,America/Argentina/Cordoba,1/29/10
3833027,Vera,-29.4593,-60.21261,AR,21,19797,64,America/Argentina/Cordoba,1/18/12
3833062,Venado Tuerto,-33.74556,-61.96884,AR,21,72340,117,America/Argentina/Cordoba,1/18/12
3833112,Veinticinco de Mayo,-35.4323,-60.17271,AR,1,24668,57,America/Argentina/Buenos_Aires,1/18/12
3833367,Ushuaia,-54.8,-68.3,AR,23,58028,52,America/Argentina/Ushuaia,1/18/12
3833412,Unquillo,-31.23073,-64.31615,AR,5,15369,633,America/Argentina/Cordoba,1/18/12
3833794,Tres Isletas,-26.34066,-60.43207,AR,3,24747,102,America/Argentina/Cordoba,2/2/12
3833859,Tres Arroyos,-38.37394,-60.27978,AR,1,47136,113,America/Argentina/Buenos_Aires,1/18/12
3833883,Trelew,-43.24895,-65.30505,AR,4,93442,14,America/Argentina/Catamarca,2/18/07
3834502,Termas de Rio Hondo,-27.49983,-64.86042,AR,22,27838,265,America/Argentina/Cordoba,1/18/12
3834601,Tartagal,-22.51636,-63.80131,AR,17,60819,499,America/Argentina/Salta,1/18/12
3834813,Tafi Viejo,-26.73201,-65.25921,AR,24,48459,629,America/Argentina/Tucuman,1/18/12
3834971,Sunchales,-30.94404,-61.56148,AR,21,18757,98,America/Argentina/Cordoba,1/18/12
3835793,Santo Tome,-31.66274,-60.7653,AR,21,59072,19,America/Argentina/Cordoba,1/18/12
3835869,Santiago del Estero,-27.79511,-64.26149,AR,22,354692,188,America/Argentina/Cordoba,1/18/12
3835994,Santa Rosa,-36.61667,-64.28333,AR,11,111424,179,America/Argentina/Salta,1/18/12
3836194,Santa Lucia,-31.53987,-68.49503,AR,18,43565,620,America/Argentina/San_Juan,2/2/12
3836277,Santa Fe de la Vera Cruz,-31.63333,-60.7,AR,21,489505,21,America/Argentina/Cordoba,2/3/12
3836564,San Salvador de Jujuy,-24.19456,-65.29712,AR,10,305891,1260,America/Argentina/Jujuy,11/27/12
3836620,San Ramon de la Nueva Oran,-23.13705,-64.32426,AR,17,74059,358,America/Argentina/Salta,5/9/13
3836669,San Rafael,-34.61772,-68.33007,AR,13,109163,702,America/Argentina/Mendoza,1/18/12
3836772,San Pedro,-24.23127,-64.86614,AR,10,58430,587,America/Argentina/Jujuy,2/2/12
3836846,San Nicolas de los Arroyos,-33.33578,-60.22523,AR,1,127742,25,America/Argentina/Buenos_Aires,1/18/12
3836873,San Miguel de Tucuman,-26.82414,-65.2226,AR,24,781023,452,America/Argentina/Tucuman,1/18/12
3836951,San Martin de los Andes,-40.16038,-71.34865,AR,15,23519,677,America/Argentina/Salta,8/19/10
3836992,San Martin,-33.08103,-68.46814,AR,13,82549,661,America/Argentina/Mendoza,1/18/12
3837056,San Luis,-33.29501,-66.33563,AR,19,183982,729,America/Argentina/San_Luis,1/18/12
3837124,San Justo,-30.78913,-60.59189,AR,21,21809,59,America/Argentina/Cordoba,4/4/13
3837213,San Juan,-31.5375,-68.53639,AR,18,447048,649,America/Argentina/San_Juan,1/18/12
3837240,San Jose de Jachal,-30.24057,-68.74693,AR,18,21018,1176,America/Argentina/San_Juan,1/18/12
3837441,San Jorge,-31.89618,-61.85984,AR,21,16873,109,America/Argentina/Cordoba,4/19/11
3837675,San Francisco,-31.42797,-62.08266,AR,5,59062,118,America/Argentina/Cordoba,1/18/12
3837702,San Fernando del Valle de Catamarca,-28.46957,-65.78524,AR,2,188812,545,America/Argentina/Catamarca,1/18/12
3837980,San Antonio Oeste,-40.73193,-64.94769,AR,16,16966,12,America/Argentina/Salta,1/18/12
3838233,Salta,-24.7859,-65.41166,AR,17,512686,1183,America/Argentina/Salta,1/18/12
3838506,Rufino,-34.26827,-62.71262,AR,21,18361,118,America/Argentina/Cordoba,1/18/12
3838583,Rosario,-32.94682,-60.63932,AR,21,1173533,38,America/Argentina/Cordoba,2/3/12
3838793,Rio Tercero,-32.17301,-64.11406,AR,5,53389,387,America/Argentina/Cordoba,1/18/12
3838797,Rio Segundo,-31.6526,-63.9099,AR,5,18155,341,America/Argentina/Cordoba,4/19/11
3838859,Rio Gallegos,-51.62261,-69.21813,AR,20,85700,15,America/Argentina/Rio_Gallegos,1/18/12
3838874,Rio Cuarto,-33.13067,-64.34992,AR,5,153757,441,America/Argentina/Cordoba,1/18/12
3838902,Rio Ceballos,-31.16486,-64.32241,AR,5,16632,705,America/Argentina/Cordoba,1/18/12
3839307,Rawson,-43.30016,-65.10228,AR,4,26335,13,America/Argentina/Catamarca,1/18/12
3839479,Rafaela,-31.25033,-61.4867,AR,21,88713,103,America/Argentina/Cordoba,1/18/12
3839490,Quitilipi,-26.86913,-60.21683,AR,3,32083,88,America/Argentina/Cordoba,5/6/12
3839982,Punta Alta,-38.87588,-62.07359,AR,1,57209,8,America/Argentina/Buenos_Aires,1/18/12
3840092,Puerto Madryn,-42.7692,-65.03851,AR,4,64555,11,America/Argentina/Catamarca,1/18/12
3840300,Presidencia Roque Saenz Pena,-26.78522,-60.43876,AR,3,81879,97,America/Argentina/Cordoba,1/18/12
3840860,Pocito,-31.68333,-68.58333,AR,18,40969,608,America/Argentina/San_Juan,2/2/12
3840885,Plottier,-38.96667,-68.23333,AR,15,25186,279,America/Argentina/Salta,1/18/12
3841490,Pergamino,-33.88995,-60.57357,AR,1,87652,69,America/Argentina/Buenos_Aires,1/18/12
3841500,Perez,-32.99835,-60.76791,AR,21,24436,37,America/Argentina/Cordoba,1/18/12
3841956,Parana,-31.73197,-60.5238,AR,8,262295,60,America/Argentina/Cordoba,1/18/12
3842190,Palpala,-24.25648,-65.21163,AR,10,48199,1126,America/Argentina/Jujuy,4/4/13
3842670,Olavarria,-36.89272,-60.32254,AR,1,86320,170,America/Argentina/Buenos_Aires,1/18/12
3842881,Nueve de Julio,-35.44437,-60.88313,AR,1,34718,80,America/Argentina/Buenos_Aires,1/18/12
3843123,Neuquen,-38.95161,-68.0591,AR,15,242092,281,America/Argentina/Salta,1/18/12
3843619,Morteros,-30.71164,-61.99862,AR,5,15129,99,America/Argentina/Cordoba,1/18/12
3843803,Monteros,-27.16742,-65.49832,AR,24,23771,360,America/Argentina/Tucuman,4/19/11
3844421,Mendoza,-32.89084,-68.82717,AR,13,876884,746,America/Argentina/Mendoza,1/18/12
3844899,Marcos Juarez,-32.6978,-62.10672,AR,5,24226,117,America/Argentina/Cordoba,1/18/12
3845330,Machagai,-26.92614,-60.04956,AR,3,28070,90,America/Argentina/Cordoba,2/2/12
3846864,Lincoln,-34.86649,-61.5302,AR,1,41808,92,America/Argentina/Buenos_Aires,2/2/12
3846915,Libertador General San Martin,-23.80644,-64.78757,AR,10,49267,485,America/Argentina/Jujuy,1/18/12
3848687,Las Brenas,-27.08966,-61.08161,AR,3,26955,104,America/Argentina/Cordoba,2/2/12
3848950,La Rioja,-29.41105,-66.85067,AR,12,162620,502,America/Argentina/La_Rioja,1/18/12
3851331,La Falda,-31.08841,-64.48987,AR,5,15112,947,America/Argentina/Cordoba,1/18/12
3852374,La Calera,-31.34377,-64.33529,AR,5,24796,495,America/Argentina/Cordoba,4/19/11
3852468,Laboulaye,-34.12662,-63.39119,AR,5,19908,143,America/Argentina/Cordoba,2/2/12
3853354,Junin,-34.58382,-60.94332,AR,1,85007,83,America/Argentina/Buenos_Aires,4/21/13
3853491,Joaquin V. Gonzalez,-25.08333,-64.18333,AR,17,19185,400,America/Argentina/Salta,1/18/12
3853510,Jesus Maria,-30.98153,-64.09424,AR,5,26825,533,America/Argentina/Cordoba,1/18/12
3854895,Granadero Baigorria,-32.85683,-60.71754,AR,21,32427,32,America/Argentina/Cordoba,1/18/12
3854985,Gobernador Galvez,-33.03016,-60.64045,AR,21,74650,28,America/Argentina/Cordoba,1/18/12
3855065,General Roca,-39.03333,-67.58333,AR,16,73212,237,America/Argentina/Salta,1/18/12
3855074,General Pinedo,-27.31667,-61.28333,AR,3,15741,95,America/Argentina/Cordoba,1/18/12
3855075,General Pico,-35.65662,-63.75682,AR,11,57029,143,America/Argentina/Salta,1/18/12
3855116,General Enrique Mosconi,-22.59588,-63.81255,AR,17,19811,481,America/Argentina/Salta,1/18/12
3855244,Galvez,-32.02927,-61.22103,AR,21,18374,57,America/Argentina/Cordoba,2/2/12
3855554,Firmat,-33.45937,-61.4832,AR,21,18294,109,America/Argentina/Cordoba,2/2/12
3855666,Famailla,-27.05413,-65.40329,AR,24,30951,368,America/Argentina/Tucuman,1/18/12
3855974,Esquel,-42.91147,-71.31947,AR,4,28486,553,America/Argentina/Catamarca,8/24/13
3856022,Esperanza,-31.4488,-60.93173,AR,21,35885,40,America/Argentina/Cordoba,2/2/12
3856231,Embarcacion,-23.20898,-64.09605,AR,17,23961,291,America/Argentina/Salta,2/2/12
3856235,Embalse,-32.18,-64.41809,AR,5,15900,561,America/Argentina/Cordoba,1/18/12
3858765,El Bolson,-41.96051,-71.53336,AR,16,15537,320,America/Argentina/Salta,4/12/13
3859384,Diamante,-32.06641,-60.63836,AR,8,19545,71,America/Argentina/Cordoba,2/2/12
3859512,Dean Funes,-30.42036,-64.34984,AR,5,20164,691,America/Argentina/Cordoba,1/18/12
3859552,Cutral-Co,-38.93424,-69.23052,AR,15,47380,613,America/Argentina/Salta,5/4/13
3859828,Cruz del Eje,-30.72644,-64.80387,AR,5,28166,465,America/Argentina/Cordoba,1/18/12
3859904,Crespo,-32.02873,-60.30658,AR,8,18296,109,America/Argentina/Cordoba,1/18/12
3859965,Cosquin,-31.24508,-64.46563,AR,5,19070,707,America/Argentina/Cordoba,1/18/12
3860164,Coronel Suarez,-37.45467,-61.93343,AR,1,27e3,239,America/Argentina/Buenos_Aires,1/18/12
3860217,Coronda,-31.97263,-60.91982,AR,21,16975,19,America/Argentina/Cordoba,1/18/12
3860259,Cordoba,-31.4135,-64.18105,AR,5,1428214,395,America/Argentina/Cordoba,1/18/12
3860443,Comodoro Rivadavia,-45.86414,-67.49656,AR,4,140850,65,America/Argentina/Catamarca,8/6/13
3861056,Cipolletti,-38.93392,-67.99032,AR,16,75078,267,America/Argentina/Salta,1/18/12
3861061,Cinco Saltos,-38.82224,-68.06293,AR,16,19819,288,America/Argentina/Salta,1/18/12
3861344,Chivilcoy,-34.89566,-60.01667,AR,1,54514,60,America/Argentina/Buenos_Aires,1/18/12
3861416,Chimbas,-31.48333,-68.53333,AR,18,73829,642,America/Argentina/San_Juan,2/2/12
3861445,Chilecito,-29.16195,-67.4974,AR,12,42248,1125,America/Argentina/La_Rioja,1/18/12
3861678,Charata,-27.21438,-61.18795,AR,3,27813,98,America/Argentina/Cordoba,1/18/12
3861953,Chacabuco,-34.64167,-60.47389,AR,1,34587,73,America/Argentina/Buenos_Aires,1/18/12
3862144,Centenario,-38.82955,-68.1318,AR,15,28956,292,America/Argentina/Salta,5/20/12
3862240,Caucete,-31.65179,-68.28105,AR,18,33609,578,America/Argentina/San_Juan,1/18/12
3862254,Catriel,-37.87907,-67.7956,AR,16,15169,323,America/Argentina/Salta,1/18/12
3862320,Castelli,-25.94679,-60.61947,AR,3,36588,113,America/Argentina/Cordoba,1/18/12
3862351,Casilda,-33.04417,-61.16806,AR,21,32002,79,America/Argentina/Cordoba,1/18/12
3862655,Carcarana,-32.85679,-61.15331,AR,21,15619,59,America/Argentina/Cordoba,2/2/12
3862738,Capitan Bermudez,-32.82262,-60.71852,AR,21,27060,35,America/Argentina/Cordoba,1/18/12
3862981,Canada de Gomez,-32.81636,-61.39493,AR,21,36e3,93,America/Argentina/Cordoba,1/18/12
3863379,Caleta Olivia,-46.43929,-67.52814,AR,20,36077,17,America/Argentina/Rio_Gallegos,2/2/12
3864331,Bell Ville,-32.62591,-62.68873,AR,5,35105,132,America/Argentina/Cordoba,2/2/12
3864375,Bella Vista,-27.03084,-65.30315,AR,24,15126,365,America/Argentina/Tucuman,2/2/12
3865086,Bahia Blanca,-38.7196,-62.27243,AR,1,276546,24,America/Argentina/Buenos_Aires,1/18/12
3865385,Arroyo Seco,-33.15489,-60.50863,AR,21,20008,29,America/Argentina/Cordoba,1/18/12
3865424,Arroyito,-31.42022,-63.05002,AR,5,19577,154,America/Argentina/Cordoba,2/2/12
3865840,Anatuya,-28.46064,-62.83472,AR,22,20261,111,America/Argentina/Cordoba,1/18/12
3866163,Alta Gracia,-31.65292,-64.42826,AR,5,40384,556,America/Argentina/Cordoba,1/18/12
3866242,Allen,-38.97736,-67.82714,AR,16,26083,258,America/Argentina/Salta,2/2/12
3866367,Alderetes,-26.81667,-65.13333,AR,24,38466,454,America/Argentina/Tucuman,1/18/12
3866425,Albardon,-31.43722,-68.52556,AR,18,20413,641,America/Argentina/San_Juan,2/2/12
3866496,Aguilares,-27.4338,-65.61427,AR,24,32494,375,America/Argentina/Tucuman,1/18/12
6693230,Villa Santa Rita,-34.61082,-58.481,AR,7,34e3,25,America/Argentina/Buenos_Aires,11/28/10
7116866,Villa Mercedes,-33.67571,-65.45783,AR,19,96781,516,America/Argentina/San_Luis,5/31/10
7647007,San Carlos de Bariloche,-41.14557,-71.30822,AR,16,95394,839,America/Argentina/Salta,12/18/12
5881576,Pago Pago,-14.27806,-170.7025,AS,10,11500,144,Pacific/Pago_Pago,8/29/11
2760910,Wolfsberg,46.84056,14.84417,AT,2,25610,461,Europe/Vienna,7/31/11
2761353,Wiener Neustadt,47.8,16.25,AT,3,38481,269,Europe/Vienna,11/1/12
2761369,Vienna,48.20849,16.37208,AT,9,1691468,193,Europe/Vienna,2/7/13
2761524,Wels,48.16667,14.03333,AT,4,57946,317,Europe/Vienna,2/7/13
2761669,Weinzierl bei Krems,48.4,15.6,AT,3,24092,207,Europe/Vienna,7/28/13
2762372,Villach,46.61028,13.85583,AT,2,58882,494,Europe/Vienna,2/3/12
2763423,Traun,48.22656,14.23459,AT,4,23959,271,Europe/Vienna,6/28/11
2763460,Traiskirchen,48.01485,16.29324,AT,3,16212,204,Europe/Vienna,7/31/11
2763795,Ternitz,47.71565,16.03575,AT,3,15153,395,Europe/Vienna,7/31/11
2764359,Steyr,48.04274,14.42127,AT,4,39566,285,Europe/Vienna,7/31/11
2764786,Spittal an der Drau,46.8,13.5,AT,2,16363,553,Europe/Vienna,7/31/11
2765388,Schwechat,48.13333,16.46667,AT,3,15711,163,Europe/Vienna,7/31/11
2766429,Sankt Polten,48.2,15.63333,AT,3,49001,275,Europe/Vienna,7/28/13
2766824,Salzburg,47.79941,13.04399,AT,5,150269,435,Europe/Vienna,7/28/13
2766922,Saalfelden am Steinernen Meer,47.42681,12.848,AT,5,16119,742,Europe/Vienna,7/31/11
2771335,Modling,48.08605,16.28921,AT,3,20710,222,Europe/Vienna,7/31/11
2772173,Lustenau,47.42642,9.65851,AT,8,20218,405,Europe/Vienna,7/31/11
2772400,Linz,48.30639,14.28611,AT,4,181162,268,Europe/Vienna,7/28/13
2772635,Leonding,48.27965,14.2533,AT,4,22736,289,Europe/Vienna,6/28/11
2772649,Leoben,47.3765,15.09144,AT,6,24809,543,Europe/Vienna,9/19/12
2773300,Kufstein,47.58333,12.16667,AT,7,16115,483,Europe/Vienna,7/31/11
2773549,Krems an der Donau,48.40921,15.61415,AT,3,23932,195,Europe/Vienna,7/31/11
2773913,Klosterneuburg,48.30521,16.32522,AT,3,24843,192,Europe/Vienna,7/31/11
2774326,Klagenfurt am Woerthersee,46.62472,14.30528,AT,2,90610,450,Europe/Vienna,2/3/12
2774773,Kapfenberg,47.44458,15.29331,AT,6,21819,502,Europe/Vienna,8/29/13
2775220,Innsbruck,47.26266,11.39454,AT,7,112467,587,Europe/Vienna,11/23/12
2776951,Hallein,47.68333,13.1,AT,5,18980,447,Europe/Vienna,7/31/11
2778067,Graz,47.06667,15.45,AT,6,222326,363,Europe/Vienna,7/28/13
2779674,Feldkirch,47.23306,9.6,AT,8,31082,475,Europe/Vienna,2/7/13
2780741,Dornbirn,47.41427,9.74195,AT,8,43013,437,Europe/Vienna,5/9/13
2781503,Bregenz,47.50311,9.7471,AT,8,27611,405,Europe/Vienna,11/15/12
2781520,Braunau am Inn,48.25628,13.04343,AT,4,16403,350,Europe/Vienna,6/26/11
2782067,Baden,48.00543,16.23264,AT,3,24893,230,Europe/Vienna,9/7/11
2782555,Amstetten,48.1229,14.87206,AT,3,22832,277,Europe/Vienna,7/31/11
3323063,Ansfelden,47.965,13.04944,AT,5,15673,619,Europe/Vienna,7/28/13
2058430,Whyalla,-33.03268,137.56484,AU,5,19645,20,Australia/Adelaide,8/23/13
2062338,Rockingham,-32.27682,115.72978,AU,8,108022,8,Australia/Perth,6/25/13
2062944,Prospect,-34.88241,138.5933,AU,5,20217,43,Australia/Adelaide,6/25/13
2063042,Port Hedland,-20.31215,118.61059,AU,8,15044,5,Australia/Perth,6/25/13
2063523,Perth,-31.95224,115.8614,AU,8,1896548,34,Australia/Perth,6/25/13
2065176,Murray Bridge,-35.11986,139.27345,AU,5,19577,36,Australia/Adelaide,8/3/13
2065594,Mount Isa,-20.72523,139.49727,AU,4,22785,363,Australia/Brisbane,6/25/13
2065740,Morphett Vale,-35.13333,138.51667,AU,5,22602,92,Australia/Adelaide,6/25/13
2067119,Mandurah,-32.5269,115.7217,AU,8,83294,4,Australia/Perth,6/25/13
2068079,Kwinana,-32.23013,115.78128,AU,8,30433,7,Australia/Perth,6/25/13
2068823,Kalgoorlie,-30.74614,121.4742,AU,8,31107,387,Australia/Perth,6/25/13
2070571,Gosnells,-32.08333,116,AU,8,17277,22,Australia/Perth,1/18/12
2070998,Geraldton,-28.77897,114.61459,AU,8,26872,15,Australia/Perth,6/25/13
2071059,Gawler,-34.60251,138.74902,AU,5,20006,57,Australia/Adelaide,8/3/13
2071223,Fremantle,-32.05,115.76667,AU,8,24835,26,Australia/Perth,6/25/13
2073124,Darwin,-12.46113,130.84185,AU,3,129062,31,Australia/Darwin,6/25/13
2075265,Busselton,-33.65249,115.3455,AU,8,21898,7,Australia/Perth,6/25/13
2075432,Bunbury,-33.32711,115.64137,AU,8,68248,5,Australia/Perth,6/25/13
2077579,Armadale,-32.15,116,AU,8,62296,45,Australia/Perth,6/25/13
2077895,Alice Springs,-23.69748,133.88362,AU,3,25186,583,Australia/Darwin,6/25/13
2077963,Albany,-35.0031,117.86595,AU,8,33650,50,Australia/Perth,6/25/13
2078025,Adelaide,-34.92866,138.59863000000001,AU,5,1225235,59,Australia/Adelaide,8/3/13
2143069,Woodridge,-27.63333,153.1,AU,4,20650,40,Australia/Brisbane,6/25/13
2143285,Wodonga,-36.12179,146.88809,AU,7,31605,167,Australia/Melbourne,7/29/13
2144528,Warrnambool,-38.38176,142.48799,AU,7,33982,24,Australia/Melbourne,7/29/13
2144764,Wangaratta,-36.35846,146.32056,AU,7,16845,151,Australia/Melbourne,7/29/13
2145110,Wagga Wagga,-35.12577,147.35374,AU,2,46913,201,Australia/Sydney,6/25/13
2146108,Traralgon,-38.19528,146.5415,AU,7,21960,46,Australia/Melbourne,7/29/13
2146142,Townsville,-19.26639,146.8057,AU,4,196219,15,Australia/Brisbane,6/25/13
2146268,Toowoomba,-27.56056,151.95386,AU,4,131258,599,Australia/Brisbane,6/25/13
2147381,Taree,-31.91099,152.45387,AU,2,16621,30,Australia/Sydney,6/25/13
2147497,Tamworth,-31.09048,150.92905,AU,2,47597,384,Australia/Sydney,6/25/13
2147714,Sydney,-33.86785,151.20732,AU,2,4627345,58,Australia/Sydney,8/24/13
2147849,Surfers Paradise,-28.00274,153.42999,AU,4,18501,13,Australia/Brisbane,6/4/11
2147892,Sunnybank,-27.58333,153.05,AU,4,16442,44,Australia/Brisbane,6/25/13
2147914,Sunbury,-37.57742,144.72607,AU,7,29925,220,Australia/Melbourne,7/29/13
2148398,Port Stephens,-32.71314,152.06623,AU,2,27531,16,Australia/Sydney,6/25/13
2148928,Southport,-27.96667,153.4,AU,4,28315,14,Australia/Brisbane,6/25/13
2148997,South Grafton,-29.7,152.95,AU,2,16399,6,Australia/Sydney,6/4/11
2149645,Shepparton,-36.38047,145.39867,AU,7,38773,115,Australia/Melbourne,7/31/13
2150660,Saint Kilda,-37.8676,144.98099,AU,7,17795,11,Australia/Melbourne,6/25/13
2151437,Rockhampton,-23.38032,150.50595,AU,4,61724,13,Australia/Brisbane,6/25/13
2151649,Richmond,-37.81819,145.00176,AU,7,26121,20,Australia/Melbourne,6/25/13
2152286,Queanbeyan,-35.35493,149.232,AU,2,40661,581,Australia/Sydney,6/25/13
2152329,Quakers Hill,-33.73333,150.88333,AU,2,25017,39,Australia/Sydney,6/4/11
2152659,Port Macquarie,-31.43084,152.90894,AU,2,41491,10,Australia/Sydney,6/25/13
2154219,Orange,-33.28397,149.10018,AU,2,39329,868,Australia/Sydney,6/25/13
2154787,Nowra,-34.88422,150.60036,AU,2,34479,30,Australia/Sydney,6/25/13
2155472,Newcastle,-32.92715,151.77647,AU,2,308308,21,Australia/Sydney,6/25/13
2155542,Nerang,-27.98941,153.33633,AU,4,16256,13,Australia/Brisbane,6/25/13
2156340,Mulgrave,-37.91667,145.2,AU,7,17647,75,Australia/Melbourne,6/25/13
2156643,Mount Gambier,-37.8318,140.77919,AU,5,23209,41,Australia/Adelaide,8/3/13
2156813,Mosman,-33.82778,151.23333,AU,2,26236,86,Australia/Sydney,1/18/12
2156878,Mornington,-38.21667,145.03333,AU,7,22421,1,Australia/Melbourne,6/25/13
2156934,Morayfield,-27.10876,152.94907,AU,4,18020,8,Australia/Brisbane,6/25/13
2157343,Moe,-38.17828,146.26099,AU,7,15582,76,Australia/Melbourne,7/29/13
2157698,Mildura,-34.18551,142.16251,AU,7,30016,56,Australia/Melbourne,7/29/13
2158151,Melton,-37.68339,144.58543,AU,7,35490,138,Australia/Melbourne,6/25/13
2158177,Melbourne,-37.814,144.96332,AU,7,4246375,25,Australia/Melbourne,7/29/13
2158562,Maryborough,-25.54073,152.70493,AU,4,21501,11,Australia/Brisbane,6/25/13
2158626,Marrickville,-33.91667,151.16667,AU,2,23161,9,Australia/Sydney,6/4/11
2158651,Maroubra,-33.95,151.23333,AU,2,26538,24,Australia/Sydney,6/25/13
2159045,Maitland,-32.73308,151.5574,AU,2,67132,16,Australia/Sydney,6/25/13
2159220,Mackay,-21.15345,149.16554,AU,4,74219,11,Australia/Brisbane,6/25/13
2159851,Liverpool,-33.9,150.93333,AU,2,21317,11,Australia/Sydney,2/2/12
2160063,Lismore,-28.81354,153.2773,AU,2,30086,11,Australia/Sydney,6/25/13
2160517,Launceston,-41.43876,147.13467,AU,6,106153,11,Australia/Hobart,6/25/13
2161776,Katoomba,-33.71977,150.30739,AU,2,18593,991,Australia/Sydney,2/16/12
2163137,Hornsby,-33.70244,151.09931,AU,2,19863,186,Australia/Sydney,6/25/13
2163355,Hobart,-42.87936,147.32941,AU,6,216656,19,Australia/Hobart,6/25/13
2164422,Griffith,-34.28853,146.05093,AU,2,15455,128,Australia/Sydney,2/28/12
2164515,Greensborough,-37.70462,145.10302,AU,7,20214,75,Australia/Melbourne,6/4/11
2164691,Granville,-33.83333,151.01667,AU,2,22889,12,Australia/Sydney,1/18/12
2164837,Goulburn,-34.75155,149.72086,AU,2,20940,642,Australia/Sydney,2/28/12
2165087,Gold Coast,-28.00029,153.43088,AU,4,591473,12,Australia/Brisbane,6/25/13
2165478,Gladstone,-23.84761,151.25635,AU,4,30489,22,Australia/Brisbane,2/28/12
2165798,Geelong,-38.14711,144.36069,AU,7,226034,23,Australia/Melbourne,7/31/13
2166143,Frankston East,-38.13333,145.13333,AU,7,34457,10,Australia/Melbourne,1/18/12
2166309,Forster,-32.18136,152.51715,AU,2,17591,7,Australia/Sydney,2/28/12
2167280,Epping,-33.77271,151.08184,AU,2,18969,97,Australia/Sydney,6/4/11
2167312,Engadine,-34.06667,151.01667,AU,2,17937,182,Australia/Sydney,1/18/12
2167817,Echuca,-36.14057,144.75185,AU,7,19457,100,Australia/Melbourne,7/29/13
2167949,Earlwood,-33.95,151.1,AU,2,16564,43,Australia/Sydney,1/18/12
2168305,Dubbo,-32.24295,148.60484,AU,2,32327,264,Australia/Sydney,6/25/13
2168943,Devonport,-41.17695,146.35152,AU,6,19317,28,Australia/Hobart,2/28/12
2169220,Deception Bay,-27.19354,153.02631,AU,4,16090,13,Australia/Brisbane,2/28/12
2169956,Cronulla,-34.05,151.15,AU,2,16754,17,Australia/Sydney,1/18/12
2170078,Cranbourne,-38.1,145.28333,AU,7,39419,52,Australia/Melbourne,1/18/12
2170089,Craigieburn,-37.6,144.95,AU,7,19728,186,Australia/Melbourne,1/18/12
2171085,Coffs Harbour,-30.29626,153.11351,AU,2,26353,6,Australia/Sydney,6/25/13
2171507,Wollongong,-34.424,150.89345,AU,2,292190,29,Australia/Sydney,6/25/13
2171845,Cessnock,-32.83211,151.35623,AU,2,16393,71,Australia/Sydney,2/28/12
2172111,Castle Hill,-33.73333,151,AU,2,35389,126,Australia/Sydney,1/18/12
2172303,Carlingford,-33.78269,151.04888,AU,2,21364,105,Australia/Sydney,6/4/11
2172311,Caringbah,-34.05,151.13333,AU,2,21283,34,Australia/Sydney,6/4/11
2172517,Canberra,-35.28346,149.12807,AU,1,367752,571,Australia/Sydney,6/25/13
2172686,Camberwell,-37.84205,145.0694,AU,7,19637,47,Australia/Melbourne,8/26/11
2172710,Caloundra,-26.79709,153.13771,AU,4,38706,33,Australia/Brisbane,2/28/12
2172797,Cairns,-16.92304,145.76625,AU,4,153075,7,Australia/Brisbane,6/25/13
2172832,Caboolture,-27.08465,152.9511,AU,4,21478,21,Australia/Brisbane,2/28/12
2173125,Burnie,-41.05584,145.90375,AU,6,19972,29,Australia/Hobart,2/28/12
2173323,Bundaberg,-24.86621,152.3479,AU,4,70826,17,Australia/Brisbane,6/25/13
2173605,Buderim,-26.68443,153.05705,AU,4,15228,153,Australia/Brisbane,2/28/12
2173741,Brunswick,-37.76667,144.96667,AU,7,19867,51,Australia/Melbourne,1/18/12
2173911,Broken Hill,-31.96173,141.45998,AU,2,18430,312,Australia/Broken_Hill,6/25/13
2174003,Brisbane,-27.46794,153.02809,AU,4,2189878,27,Australia/Brisbane,6/25/13
2175411,Blacktown,-33.76667,150.91667,AU,2,39e3,67,Australia/Sydney,9/18/12
2176187,Bendigo,-36.75818,144.28024,AU,7,100617,221,Australia/Melbourne,7/31/13
2176632,Bathurst,-33.41665,149.5806,AU,2,33110,670,Australia/Sydney,6/25/13
2176934,Banora Point,-28.21298,153.53634,AU,2,27368,4,Australia/Sydney,6/4/11
2177091,Ballarat,-37.56622,143.84957,AU,7,97937,445,Australia/Melbourne,7/31/13
2177671,Armidale,-30.50828,151.67123,AU,2,22673,983,Australia/Sydney,2/28/12
2178174,Albury,-36.07494,146.92394,AU,2,45627,164,Australia/Sydney,6/25/13
2207259,South Brisbane,-27.48333,153.01667,AU,4,6e4,31,Australia/Brisbane,6/4/11
2208285,Randwick,-33.91667,151.24167,AU,2,25819,74,Australia/Sydney,9/18/12
2208305,Dee Why,-33.75,151.3,AU,2,17463,-9999,Australia/Sydney,1/12/12
6301965,Palmerston,-12.48602,130.9833,AU,3,25e3,36,Australia/Darwin,6/4/11
6943558,Bracken Ridge,-27.3171,153.03097,AU,4,15355,27,Australia/Brisbane,8/26/11
7281782,North Ryde,-33.79677,151.12436,AU,2,17208,79,Australia/Sydney,3/1/12
7281807,Hoppers Crossing,-37.88264,144.7003,AU,7,38108,30,Australia/Melbourne,6/4/11
7281838,Logan City,-27.63917,153.10944,AU,4,282673,39,Australia/Brisbane,6/25/13
7281839,Carindale,-27.50578,153.10236,AU,4,15135,14,Australia/Brisbane,6/4/11
7281840,Paramatta,-33.8178,151.00348,AU,2,18448,26,Australia/Sydney,9/18/12
7281850,Ferntree Gully,-37.88461,145.29539,AU,7,24724,125,Australia/Melbourne,6/4/11
7302259,City of Parramatta,-33.81667,151,AU,2,19745,24,Australia/Sydney,6/25/13
7302628,Adelaide Hills,-34.91118,138.70735,AU,5,60394,426,Australia/Adelaide,6/25/13
7302631,Canning Vale,-32.05798,115.91814,AU,8,23289,24,Australia/Perth,6/4/11
7302642,Glenmore Park,-33.79068,150.6693,AU,2,19200,48,Australia/Sydney,6/4/11
7932612,Glen Iris,-37.85995,145.05489,AU,7,23270,49,Australia/Melbourne,8/26/11
7932629,Balwyn North,-37.79086,145.09386,AU,7,19968,59,Australia/Melbourne,8/26/11
7932636,Carnegie,-37.88867,145.05713,AU,7,15084,50,Australia/Melbourne,8/26/11
7932638,Malvern East,-37.87397,145.04253,AU,7,19593,60,Australia/Melbourne,3/7/13
7932646,Brighton East,-37.90141,145.01884,AU,7,15167,19,Australia/Melbourne,8/26/11
7932651,Bentleigh East,-37.9201,145.05987,AU,7,24520,52,Australia/Melbourne,8/26/11
7932654,Booval,-27.61328,152.78944,AU,4,20540,34,Australia/Brisbane,8/26/11
8015209,St Albans,-37.74496,144.80049,AU,7,33511,70,Australia/Melbourne,9/2/11
8347325,Endeavour Hills,-37.97695,145.25866,AU,7,25e3,92,Australia/Melbourne,7/9/12
8347717,Clayton,-37.91731,145.13041,AU,7,15500,88,Australia/Melbourne,9/2/12
8354541,Robina,-28.07751,153.38571,AU,4,27887,23,Australia/Brisbane,7/31/12
3577154,Oranjestad,12.52398,-70.02703,AW,0,29998,22,America/Aruba,12/7/10
3577277,Babijn,12.53333,-69.98333,AW,0,40627,28,America/Aruba,4/4/13
3577284,Angochi,12.51667,-69.95,AW,0,29442,83,America/Aruba,1/18/12
3041732,Mariehamn,60.09726,19.93481,AX,478,10682,11,Europe/Mariehamn,9/28/10
146970,Xankndi,39.8177,46.7528,AZ,61,53100,850,Asia/Baku,6/26/13
147059,Ahmadbayli,39.87867,48.39902,AZ,45,17242,-14,Asia/Baku,4/3/13
147105,Shushi,39.76006,46.74989,AZ,55,18662,1338,Asia/Baku,8/19/13
147271,Salyan,39.59621,48.98479,AZ,49,36555,-17,Asia/Baku,4/3/13
147288,Saatli,39.93214,48.36892,AZ,45,87e3,-7,Asia/Baku,8/2/13
147425,Neftcala,39.3768,49.247,AZ,36,18661,-24,Asia/Baku,4/3/13
147429,Nakhchivan,39.20889,45.41222,AZ,35,64754,890,Asia/Baku,8/19/13
147622,Lnkran,38.75428,48.85062,AZ,29,240300,-16,Asia/Baku,8/24/13
147982,Imishli,39.87095,48.05995,AZ,24,34178,1,Asia/Baku,6/26/13
148106,Fizuli,39.60094,47.14529,AZ,18,26765,419,Asia/Baku,8/2/13
148290,Dzhalilabad,39.20963,48.49186,AZ,15,36259,39,Asia/Baku,1/10/13
148340,Pushkino,39.45833,48.545,AZ,13,18182,4,Asia/Baku,1/10/13
148354,Beylqan,39.77556,47.61861,AZ,12,15599,58,Asia/Baku,6/26/13
148445,Astara,38.45598,48.87498,AZ,8,15190,-22,Asia/Baku,8/4/12
148565,Sirvan,39.93778,48.929,AZ,7,70220,-15,Asia/Baku,6/26/13
148619,Agdam,39.99096,46.92736,AZ,3,39451,374,Asia/Baku,4/3/13
584596,Zaqatala,41.63361,46.64333,AZ,70,18277,502,Asia/Baku,1/17/12
584614,Zabrat,40.47746,49.94174,AZ,9,21396,47,Asia/Baku,7/4/13
584649,Yevlakh,40.61832,47.15014,AZ,68,59036,17,Asia/Baku,7/9/13
584716,Yelenendorf,40.58584,46.3189,AZ,62,17816,686,Asia/Baku,5/7/13
584717,Xacmaz,41.46349,48.80605,AZ,60,37175,47,Asia/Baku,8/4/12
584791,Ujar,40.51902,47.65423,AZ,59,15741,18,Asia/Baku,8/30/11
584871,Terter,40.34179,46.93242,AZ,57,18185,254,Asia/Baku,5/7/13
584923,Sumqayit,40.58972,49.66861,AZ,54,265150,-11,Asia/Baku,8/4/12
585103,Qaracuxur,40.39667,49.97361,AZ,9,72989,51,Asia/Baku,1/17/12
585152,Shamkhor,40.82972,46.01889,AZ,51,35421,455,Asia/Baku,1/17/12
585156,Shamakhi,40.63141,48.64137,AZ,50,29403,687,Asia/Baku,2/5/12
585170,Sheki,41.19194,47.17056,AZ,48,63e3,549,Asia/Baku,8/19/13
585184,Sabuncu,40.4425,49.94806,AZ,9,20996,26,Asia/Baku,1/17/12
585187,Sabirabad,40.00869,48.47701,AZ,46,28075,-15,Asia/Baku,7/4/13
585220,Qusar,41.42728,48.42893,AZ,44,16022,687,Asia/Baku,8/4/12
585221,Quba,41.36259,48.51519,AZ,42,22405,597,Asia/Baku,8/4/12
585225,Haciqabul,40.03874,48.94286,AZ,23,23102,8,Asia/Baku,7/4/13
585226,Qazax,41.09246,45.36561,AZ,40,18903,384,Asia/Baku,9/5/13
585379,Haci Zeynalabdin,40.62333,49.55861,AZ,54,19019,-17,Asia/Baku,1/17/12
585514,Mingelchaur,40.76395,47.05953,AZ,33,95453,26,Asia/Baku,8/4/12
585557,Mastaga,40.52982,50.00616,AZ,9,40092,31,Asia/Baku,8/5/13
585568,Mardakyany,40.49182,50.14292,AZ,9,15267,-5,Asia/Baku,8/5/13
585630,Lokbatan,40.3256,49.73376,AZ,9,30694,15,Asia/Baku,7/4/13
585763,Kyurdarmir,40.34532,48.15085,AZ,27,19088,11,Asia/Baku,8/2/13
585915,Khirdalan,40.44808,49.75502,AZ,1,37949,75,Asia/Baku,8/2/13
586340,Yeni Suraxani,40.43026,50.03598,AZ,9,16127,10,Asia/Baku,7/4/13
586427,Geoktschai,40.65056,47.74219,AZ,22,35348,122,Asia/Baku,6/4/13
586429,Hovsan,40.37444,50.08528,AZ,9,36293,-19,Asia/Baku,1/17/12
586523,Ganja,40.68278,46.36056,AZ,20,313300,417,Asia/Baku,7/6/13
586763,Divichibazar,41.20117,48.98712,AZ,17,23248,44,Asia/Baku,8/2/13
586925,Buzovna,40.51903,50.11438,AZ,9,24795,-7,Asia/Baku,8/5/13
586968,Biny Selo,40.45076,50.08686,AZ,9,24596,21,Asia/Baku,8/5/13
587057,Barda,40.37577,47.12619,AZ,11,37372,77,Asia/Baku,6/4/13
587078,Bilajari,40.4444,49.80566,AZ,9,42194,25,Asia/Baku,8/30/11
587084,Baku,40.37767,49.89201,AZ,9,1116513,-23,Asia/Baku,3/22/13
587261,Amirdzhan,40.42639,49.98361,AZ,9,26798,18,Asia/Baku,1/17/12
587361,Aghsu,40.57028,48.40087,AZ,6,17209,179,Asia/Baku,2/5/12
587378,Agdas,40.64699,47.4738,AZ,4,23528,50,Asia/Baku,6/4/13
587384,Agdzhabedy,40.05015,47.45937,AZ,2,34989,15,Asia/Baku,4/3/13
824003,Bakixanov,40.41894,49.96693,AZ,9,66686,10,Asia/Baku,7/6/13
3186573,Zenica,44.20169,17.90397,BA,1,164423,325,Europe/Sarajevo,5/6/12
3187609,Visoko,43.98889,18.17806,BA,1,17890,423,Europe/Sarajevo,1/19/12
3188225,Velika Kladusa,45.18497,15.80579,BA,1,19330,160,Europe/Sarajevo,2/28/12
3188582,Tuzla,44.53842,18.66709,BA,1,142486,225,Europe/Sarajevo,4/6/12
3188893,Trebinje,42.71197,18.34362,BA,2,33178,278,Europe/Sarajevo,4/6/12
3188924,Travnik,44.22637,17.66582,BA,1,31127,507,Europe/Sarajevo,5/6/12
3191281,Sarajevo,43.84864,18.35644,BA,1,696731,509,Europe/Sarajevo,11/15/12
3192409,Prijedor,44.97991,16.71401,BA,2,36347,140,Europe/Sarajevo,2/28/12
3194828,Mostar,43.34333,17.80806,BA,1,104518,66,Europe/Sarajevo,11/27/12
3199744,Gradacac,44.87851,18.42764,BA,1,15659,139,Europe/Sarajevo,4/6/12
3199779,Gracanica,44.70307,18.3101,BA,1,15758,188,Europe/Sarajevo,4/6/12
3200396,Gorazde,43.66795,18.97564,BA,1,17650,348,Europe/Sarajevo,4/6/12
3201984,Doboj,44.73179,18.08698,BA,2,27235,144,Europe/Sarajevo,5/6/12
3202822,Cazin,44.96694,15.94306,BA,1,21741,325,Europe/Sarajevo,1/19/12
3203099,Bugojno,44.05722,17.45083,BA,1,41378,565,Europe/Sarajevo,1/19/12
3203521,Brcko,44.87278,18.80833,BA,BRC,38968,95,Europe/Sarajevo,6/26/13
3203653,Bosanska Krupa,44.8825,16.15139,BA,1,15193,153,Europe/Sarajevo,2/28/12
3204186,Bijeljina,44.75874,19.21437,BA,2,37692,91,Europe/Sarajevo,4/6/12
3204222,Bihac,44.81694,15.87083,BA,1,75641,223,Europe/Sarajevo,1/19/12
3204541,Banja Luka,44.77583,17.18556,BA,2,221106,166,Europe/Sarajevo,3/14/08
3337476,Konjic,43.65126,17.96082,BA,1,15950,286,Europe/Sarajevo,2/29/12
3374036,Bridgetown,13.1,-59.61667,BB,8,98511,10,America/Barbados,1/18/12
1185092,Thakurgaon,26.03097,88.46989,BD,87,71096,57,Asia/Dhaka,11/8/12
1185095,Teknaf,20.86382,92.30153,BD,84,40557,9,Asia/Dhaka,7/4/12
1185098,Tungi,23.89154,90.40232,BD,81,337579,13,Asia/Dhaka,1/10/13
1185099,Sylhet,24.89904,91.87198,BD,86,237e3,26,Asia/Dhaka,7/20/13
1185100,Dohar,23.59311,90.14251,BD,81,45543,14,Asia/Dhaka,2/8/13
1185106,Jamalpur,24.91965,89.94812,BD,81,167900,23,Asia/Dhaka,2/8/13
1185108,Shibganj,24.68501,88.15638,BD,83,35961,30,Asia/Dhaka,11/8/12
1185111,Satkhira,22.70817,89.07185,BD,82,128918,11,Asia/Dhaka,10/18/12
1185115,Sirajganj,24.45771,89.70802,BD,83,127481,19,Asia/Dhaka,2/8/13
1185116,Netrakona,24.88352,90.72898,BD,81,79016,14,Asia/Dhaka,9/6/12
1185117,Narsingdi,23.92298,90.71768,BD,81,281080,13,Asia/Dhaka,7/4/12
1185120,Sandwip,22.51409,91.45491,BD,84,52152,7,Asia/Dhaka,7/4/12
1185121,Shahzadpur,24.17687,89.5988,BD,83,102420,16,Asia/Dhaka,2/8/13
1185127,Ramganj,23.1006,90.84989,BD,84,55241,14,Asia/Dhaka,10/18/12
1185128,Rajshahi,24.374,88.60114,BD,83,700133,23,Asia/Dhaka,12/5/12
1185138,Pirojpur,22.57965,89.97521,BD,85,54418,10,Asia/Dhaka,7/4/12
1185141,Panchagarh,26.33338,88.55777,BD,87,48531,79,Asia/Dhaka,6/5/12
1185148,Patiya,22.29543,91.979,BD,84,51360,11,Asia/Dhaka,7/4/12
1185149,Parbatipur,25.66369,88.93093,BD,87,48020,39,Asia/Dhaka,11/8/12
1185155,Narayanganj,23.61352,90.50298,BD,81,223622,13,Asia/Dhaka,7/4/12
1185156,Nalchiti,22.63696,90.27195,BD,85,38703,8,Asia/Dhaka,10/18/12
1185159,Nagarpur,24.05783,89.87696,BD,81,238422,15,Asia/Dhaka,10/18/12
1185160,Nageswari,25.96817,89.69153,BD,87,49425,33,Asia/Dhaka,11/8/12
1185162,Mymensingh,24.75636,90.40646,BD,81,225126,19,Asia/Dhaka,7/20/13
1185164,Muktagacha,24.76484,90.25698,BD,81,24684,22,Asia/Dhaka,10/18/12
1185165,Mirzapur,24.10287,90.09841,BD,81,41137,15,Asia/Dhaka,2/8/13
1185166,Maulavi Bazar,24.48888,91.77075,BD,86,57441,19,Asia/Dhaka,7/4/12
1185167,Morrelgonj,22.45566,89.85584,BD,82,31647,8,Asia/Dhaka,7/4/12
1185171,Mehendiganj,22.82257,90.52859,BD,85,39424,9,Asia/Dhaka,10/18/12
1185173,Mathba,22.28616,89.95882,BD,85,29760,10,Asia/Dhaka,7/4/12
1185181,Lalmanirhat,25.91719,89.44595,BD,87,65127,38,Asia/Dhaka,11/8/12
1185183,Laksham,23.24018,91.12143,BD,84,82290,10,Asia/Dhaka,7/4/12
1185186,Comilla,23.46186,91.18504,BD,84,389411,17,Asia/Dhaka,7/4/12
1185188,Rangpur,25.74664,89.25166,BD,87,343122,36,Asia/Dhaka,7/9/13
1185191,Kushtia,23.9028,89.11943,BD,82,135724,17,Asia/Dhaka,11/8/12
1185199,Kaliganj,23.40964,89.13801,BD,82,45631,16,Asia/Dhaka,7/4/12
1185204,Jhingergacha,23.11134,89.09061,BD,82,41957,15,Asia/Dhaka,7/4/12
1185206,Joypur Hat,25.10147,89.02734,BD,83,73068,24,Asia/Dhaka,12/5/12
1185207,Ishurdi,24.12858,89.06573,BD,83,81995,19,Asia/Dhaka,10/18/12
1185209,Habiganj,24.38044,91.413,BD,86,88760,15,Asia/Dhaka,7/4/12
1185210,Gaurnadi,22.97372,90.22376,BD,85,40519,12,Asia/Dhaka,10/18/12
1185218,Gafargaon,24.432,90.5585,BD,81,34177,16,Asia/Dhaka,10/18/12
1185224,Feni,23.01134,91.4013,BD,84,84028,12,Asia/Dhaka,7/4/12
1185236,Raipur,23.0391,90.76808,BD,84,64652,13,Asia/Dhaka,10/18/12
1185239,Sarankhola,22.31006,89.79113,BD,82,36470,9,Asia/Dhaka,7/4/12
1185241,Dhaka,23.7104,90.40744,BD,81,10356500,23,Asia/Dhaka,1/14/12
1185247,Chilmari,25.55613,89.67097,BD,87,49736,27,Asia/Dhaka,11/8/12
1185249,Chhagalnaiya,23.02475,91.51092,BD,84,39335,13,Asia/Dhaka,7/4/12
1185251,Lalmohan,22.33774,90.73708,BD,85,42220,10,Asia/Dhaka,7/4/12
1185252,Khagrachhari,23.10787,91.97006,BD,84,50364,47,Asia/Dhaka,10/18/12
1185254,Chhatak,25.03858,91.6815,BD,86,39218,13,Asia/Dhaka,10/18/12
1185260,Bhatpara Abhaynagar,23.01472,89.43936,BD,82,42653,9,Asia/Dhaka,7/4/12
1185262,Bheramara,24.02452,88.99234,BD,82,38159,19,Asia/Dhaka,11/8/12
1185263,Bhairab Bazar,24.0524,90.9764,BD,81,105457,12,Asia/Dhaka,10/18/12
1185270,Bandarban,22.19534,92.21946,BD,84,32523,24,Asia/Dhaka,7/4/12
1185272,Kalia,23.043,89.63094,BD,82,40492,9,Asia/Dhaka,7/4/12
1185274,Baniachang,24.51863,91.35787,BD,86,37807,14,Asia/Dhaka,10/18/12
1185276,Bajitpur,24.21623,90.95002,BD,81,34560,14,Asia/Dhaka,10/18/12
1185283,Badarganj,25.67419,89.05377,BD,87,32600,40,Asia/Dhaka,11/8/12
1185293,Narail,23.15509,89.49515,BD,82,55112,11,Asia/Dhaka,10/18/12
1185920,Tungipara,22.89983,89.90326,BD,81,62210,8,Asia/Dhaka,10/18/12
1188569,Sarishabari,24.75127,89.83126,BD,81,81325,22,Asia/Dhaka,10/18/12
1189056,Sakhipur,24.31988,90.16943,BD,81,40869,25,Asia/Dhaka,10/18/12
1189638,Raojan,22.53511,91.91919,BD,84,25708,9,Asia/Dhaka,7/4/12
1191139,Phultala,22.71673,89.51194,BD,82,37985,7,Asia/Dhaka,7/4/12
1191368,Palang,23.21824,90.35076,BD,0,67652,12,Asia/Dhaka,7/4/12
1192366,Par Naogaon,24.80418,88.94875,BD,83,192464,20,Asia/Dhaka,2/8/13
1193823,Nabinagar,23.88791,90.96792,BD,84,31671,13,Asia/Dhaka,7/4/12
1196292,Lakshmipur,22.9443,90.83005,BD,84,61703,11,Asia/Dhaka,8/5/13
1197895,Kesabpur,22.90725,89.21954,BD,82,30926,7,Asia/Dhaka,10/18/12
1201753,Hajiganj,23.25191,90.85508,BD,84,44343,13,Asia/Dhaka,7/4/12
1203344,Faridpur,23.60612,89.84064,BD,81,112187,15,Asia/Dhaka,2/8/13
1203891,Dinajpur,25.62745,88.63779,BD,87,206234,42,Asia/Dhaka,11/8/12
1205481,Uttar Char Fasson,22.22647,90.71275,BD,82,48305,7,Asia/Dhaka,7/4/12
1205733,Chittagong,22.3384,91.83168,BD,84,3920222,15,Asia/Dhaka,8/5/13
1207047,Char Bhadrasan,23.30916,90.22698,BD,81,34423,11,Asia/Dhaka,10/18/12
1209562,Bera,24.07821,89.63262,BD,83,39604,14,Asia/Dhaka,2/8/13
1210565,Burhanuddin,22.49518,90.7239,BD,85,45670,9,Asia/Dhaka,7/4/12
1336133,Satkania,22.07639,92.04955,BD,84,52005,13,Asia/Dhaka,7/5/12
1336134,Cox's Bazar,21.45388,91.96765,BD,84,253788,8,Asia/Dhaka,7/5/12
1336135,Khulna,22.80978,89.56439,BD,82,1342339,8,Asia/Dhaka,7/5/12
1336136,Bhola,22.68759,90.64403,BD,85,99079,7,Asia/Dhaka,10/18/12
1336137,Barisal,22.70497,90.37013,BD,85,202242,10,Asia/Dhaka,4/2/13
1336140,Jessore,23.16971,89.21371,BD,82,243987,15,Asia/Dhaka,7/5/12
1336143,Pabna,24.00644,89.2372,BD,83,186781,19,Asia/Dhaka,8/18/13
1336144,Tangail,24.24984,89.91655,BD,81,180144,17,Asia/Dhaka,2/9/13
1337233,Bogra,24.85098,89.37108,BD,83,21e4,26,Asia/Dhaka,2/9/13
1337239,Pirgaaj,25.85587,88.35943,BD,87,34606,49,Asia/Dhaka,11/9/12
1337240,Nawabganj,24.59025,88.27444,BD,83,142361,28,Asia/Dhaka,2/9/13
1337245,Madaripur,23.17097,90.20935,BD,81,84789,10,Asia/Dhaka,7/5/12
1337248,Sherpur,25.01881,90.01751,BD,81,107419,25,Asia/Dhaka,1/19/12
1337249,Kishorganj,24.43944,90.78291,BD,81,90690,16,Asia/Dhaka,7/5/12
1462681,Manikchari,22.83957,91.84128,BD,84,24813,33,Asia/Dhaka,7/5/12
1477498,Bhandaria,22.48898,90.06273,BD,85,30219,13,Asia/Dhaka,7/5/12
6414184,Fatikchari,22.68768,91.78123,BD,84,33200,14,Asia/Dhaka,7/5/12
6545349,Saidpur,25.77769,88.89169,BD,83,199422,43,Asia/Dhaka,7/20/13
2783081,Zwijndrecht,51.21979,4.32664,BE,VLG,18249,7,Europe/Brussels,2/7/11
2783089,Zwevegem,50.81268,3.33848,BE,VLG,23358,30,Europe/Brussels,1/18/12
2783175,Zottegem,50.86956,3.81052,BE,VLG,24434,63,Europe/Brussels,1/18/12
2783188,Zonhoven,50.99064,5.36819,BE,VLG,19922,44,Europe/Brussels,2/23/11
2783204,Zoersel,51.26825,4.71296,BE,VLG,20642,17,Europe/Brussels,2/8/11
2783274,Zemst,50.98318,4.46079,BE,VLG,21096,11,Europe/Brussels,2/3/11
2783293,Zele,51.06566,4.0403,BE,VLG,20236,6,Europe/Brussels,1/18/12
2783308,Zedelgem,51.14236,3.1368,BE,VLG,21968,9,Europe/Brussels,1/18/12
2783310,Zaventem,50.88365,4.47298,BE,VLG,28188,46,Europe/Brussels,2/3/11
2783416,Wuustwezel,51.39214,4.59546,BE,VLG,18117,18,Europe/Brussels,2/11/11
2783632,Willebroek,51.06041,4.36019,BE,VLG,22808,4,Europe/Brussels,1/18/12
2783759,Wevelgem,50.8,3.16667,BE,VLG,30954,15,Europe/Brussels,1/18/12
2783763,Wetteren,51.00526,3.88341,BE,VLG,22930,16,Europe/Brussels,1/18/12
2783801,Westerlo,51.09049,4.91544,BE,VLG,22579,14,Europe/Brussels,1/18/12
2783820,Wervik,50.78069,3.03854,BE,VLG,17340,18,Europe/Brussels,1/18/12
2783941,Wavre,50.71717,4.60138,BE,WAL,32112,72,Europe/Brussels,1/26/11
2783985,Waterloo,50.71255,4.4014,BE,WAL,28910,108,Europe/Brussels,1/26/11
2784068,Waregem,50.88898,3.42756,BE,VLG,35896,13,Europe/Brussels,1/18/12
2784189,Walcourt,50.25401,4.43796,BE,WAL,17501,187,Europe/Brussels,7/19/11
2784548,Vise,50.7376,5.69907,BE,WAL,17054,86,Europe/Brussels,3/21/11
2784604,Vilvoorde,50.92814,4.42938,BE,VLG,36955,19,Europe/Brussels,2/3/11
2784821,Verviers,50.58907,5.86241,BE,WAL,52824,201,Europe/Brussels,3/23/11
2785141,Turnhout,51.32254,4.94471,BE,VLG,39654,29,Europe/Brussels,3/5/13
2785169,Tubize,50.69059,4.2009,BE,WAL,21859,39,Europe/Brussels,2/1/11
2785341,Tournai,50.60715,3.38932,BE,WAL,67721,24,Europe/Brussels,3/5/13
2785364,Torhout,51.0656,3.10085,BE,VLG,18933,22,Europe/Brussels,1/18/12
2785389,Tongeren,50.78054,5.46484,BE,VLG,29816,107,Europe/Brussels,2/28/11
2785470,Tienen,50.80744,4.9378,BE,VLG,31743,46,Europe/Brussels,1/18/12
2785476,Tielt,50.99931,3.32707,BE,VLG,19299,46,Europe/Brussels,3/5/13
2785612,Tessenderlo,51.06513,5.08856,BE,VLG,16574,27,Europe/Brussels,3/14/11
2785622,Tervuren,50.82372,4.51418,BE,VLG,20623,79,Europe/Brussels,2/15/11
2785778,Temse,51.12794,4.21372,BE,VLG,26054,15,Europe/Brussels,1/18/12
2786087,Stekene,51.2099,4.0365,BE,VLG,16989,7,Europe/Brussels,1/18/12
2786229,Stabroek,51.33189,4.37127,BE,VLG,17294,3,Europe/Brussels,1/18/12
2786344,Soumagne,50.61385,5.74679,BE,WAL,15237,200,Europe/Brussels,3/21/11
2786420,Soignies,50.57904,4.07129,BE,WAL,24869,89,Europe/Brussels,1/29/10
2786545,Sint-Truiden,50.81679,5.18647,BE,VLG,37859,54,Europe/Brussels,1/18/12
2786559,Sint-Pieters-Leeuw,50.77926,4.24355,BE,VLG,30446,45,Europe/Brussels,1/18/12
2786578,Sint-Niklaas,51.16509,4.1437,BE,VLG,69010,21,Europe/Brussels,3/5/13
2786634,Sint-Kruis,51.21399,3.24949,BE,VLG,16e3,7,Europe/Brussels,12/3/12
2786641,Sint-Katelijne-Waver,51.06691,4.53469,BE,VLG,19487,6,Europe/Brussels,2/10/11
2786694,Sint-Gillis-Waas,51.21914,4.12374,BE,VLG,17658,5,Europe/Brussels,1/18/12
2786700,Sint-Genesius-Rode,50.74645,4.35754,BE,VLG,17990,83,Europe/Brussels,2/2/11
2786824,Seraing,50.58362,5.50115,BE,WAL,60737,185,Europe/Brussels,3/14/11
2786963,Schoten,51.25251,4.50268,BE,VLG,33622,8,Europe/Brussels,2/11/11
2787048,Schilde,51.24107,4.58336,BE,VLG,20373,9,Europe/Brussels,2/11/11
2787356,Saint-Nicolas,50.62837,5.53243,BE,WAL,22586,96,Europe/Brussels,3/15/11
2787416,Saint-Ghislain,50.44816,3.81886,BE,WAL,22500,27,Europe/Brussels,1/29/10
2787662,Rotselaar,50.95302,4.71665,BE,VLG,15007,12,Europe/Brussels,2/17/11
2787769,Ronse,50.74574,3.6005,BE,VLG,24204,42,Europe/Brussels,1/18/12
2787889,Roeselare,50.94653,3.12269,BE,VLG,56016,22,Europe/Brussels,7/26/08
2787989,Rixensart,50.71229,4.52529,BE,WAL,21616,101,Europe/Brussels,1/18/12
2788088,Riemst,50.80995,5.60131,BE,VLG,15809,105,Europe/Brussels,3/2/11
2788348,Ranst,51.18983,4.56533,BE,VLG,17405,12,Europe/Brussels,2/10/11
2788499,Quaregnon,50.44067,3.8653,BE,WAL,18491,35,Europe/Brussels,1/17/09
2788506,Puurs,51.07409,4.28844,BE,VLG,15944,4,Europe/Brussels,2/10/11
2788521,Putte,51.05337,4.63263,BE,VLG,15276,22,Europe/Brussels,2/10/11
2788726,Poperinge,50.85386,2.72659,BE,VLG,19537,19,Europe/Brussels,1/18/12
2788765,Pont-a-Celles,50.50518,4.36887,BE,WAL,15909,137,Europe/Brussels,5/13/13
2789162,Peruwelz,50.50819,3.59373,BE,WAL,16647,34,Europe/Brussels,1/17/09
2789232,Peer,51.1303,5.45952,BE,VLG,15551,64,Europe/Brussels,3/14/11
2789413,Overijse,50.77436,4.53461,BE,VLG,23486,88,Europe/Brussels,1/25/11
2789471,Oupeye,50.71184,5.6468,BE,WAL,23594,125,Europe/Brussels,3/21/11
2789529,Oudenaarde,50.85168,3.60891,BE,VLG,27935,11,Europe/Brussels,3/5/13
2789751,Oostkamp,51.15432,3.23128,BE,VLG,21489,10,Europe/Brussels,1/18/12
2789786,Oostende,51.22339,2.91185,BE,VLG,69011,7,Europe/Brussels,3/5/13
2790101,Nivelles,50.59833,4.32848,BE,WAL,24149,101,Europe/Brussels,1/28/11
2790114,Ninove,50.82776,4.02657,BE,VLG,34795,17,Europe/Brussels,1/18/12
2790135,Nijlen,51.16096,4.67008,BE,VLG,20792,7,Europe/Brussels,1/18/12
2790357,Neerpelt,51.22807,5.4427,BE,VLG,16122,39,Europe/Brussels,3/4/11
2790471,Namur,50.4669,4.86746,BE,WAL,106284,88,Europe/Brussels,3/25/11
2790595,Mouscron,50.74497,3.20639,BE,WAL,52069,53,Europe/Brussels,3/5/13
2790676,Mortsel,51.16697,4.45127,BE,VLG,24525,19,Europe/Brussels,2/10/11
2790697,Morlanwelz-Mariemont,50.45502,4.24519,BE,WAL,18233,106,Europe/Brussels,1/18/12
2790869,Mons,50.45413,3.95229,BE,WAL,91277,56,Europe/Brussels,1/18/09
2791067,Mol,51.19188,5.11662,BE,VLG,32659,27,Europe/Brussels,2/10/11
2791194,Middelkerke,51.18532,2.82077,BE,VLG,17789,4,Europe/Brussels,1/18/12
2791315,Merelbeke,50.99447,3.74621,BE,VLG,22047,12,Europe/Brussels,1/18/12
2791343,Menen,50.79722,3.12245,BE,VLG,31916,18,Europe/Brussels,1/18/12
2791424,Meise,50.93934,4.32655,BE,VLG,18497,58,Europe/Brussels,2/3/11
2791537,Mechelen,51.02574,4.47762,BE,VLG,77530,8,Europe/Brussels,2/10/11
2791744,Marche-en-Famenne,50.22678,5.34416,BE,WAL,16856,214,Europe/Brussels,6/15/08
2791814,Manage,50.50312,4.23589,BE,WAL,22196,134,Europe/Brussels,1/18/12
2791857,Maldegem,51.20737,3.44511,BE,VLG,22092,9,Europe/Brussels,1/18/12
2791961,Maasmechelen,50.96545,5.69452,BE,VLG,36251,39,Europe/Brussels,2/28/11
2791964,Maaseik,51.09802,5.78379,BE,VLG,23684,30,Europe/Brussels,2/28/11
2792073,Louvain-la-Neuve,50.66829,4.61443,BE,WAL,29521,117,Europe/Brussels,1/26/11
2792165,Londerzeel,51.00468,4.30304,BE,VLG,17274,12,Europe/Brussels,2/3/11
2792179,Lommel,51.23074,5.31349,BE,VLG,31993,48,Europe/Brussels,1/18/12
2792196,Lokeren,51.10364,3.99339,BE,VLG,37567,6,Europe/Brussels,1/18/12
2792235,Lochristi,51.09644,3.83194,BE,VLG,19696,8,Europe/Brussels,1/18/12
2792360,Lille,51.24197,4.82312,BE,VLG,15466,17,Europe/Brussels,1/18/12
2792397,Lier,51.13128,4.57042,BE,VLG,33272,9,Europe/Brussels,2/10/11
2792413,Liege,50.63373,5.56749,BE,WAL,182597,66,Europe/Brussels,3/14/11
2792482,Leuven,50.87959,4.70093,BE,VLG,92892,28,Europe/Brussels,7/11/08
2792567,Lessines,50.71104,3.83579,BE,WAL,17687,23,Europe/Brussels,1/18/12
2793077,Lede,50.96626,3.98594,BE,VLG,16813,25,Europe/Brussels,1/18/12
2793144,Lebbeke,51.00464,4.13457,BE,VLG,17372,6,Europe/Brussels,1/18/12
2793446,Lanaken,50.89318,5.6468,BE,VLG,24771,63,Europe/Brussels,2/23/11
2793508,La Louviere,50.48657,4.18785,BE,WAL,76668,133,Europe/Brussels,6/15/08
2794055,Kortrijk,50.82803,3.26487,BE,VLG,73879,22,Europe/Brussels,6/15/08
2794070,Kortenberg,50.88982,4.54353,BE,VLG,17774,47,Europe/Brussels,2/3/11
2794117,Kontich,51.13213,4.44706,BE,VLG,20290,20,Europe/Brussels,2/10/11
2794166,Koksijde,51.11642,2.63772,BE,VLG,21027,8,Europe/Brussels,1/18/12
2794210,Knokke-Heist,51.35,3.26667,BE,VLG,33781,5,Europe/Brussels,1/18/12
2794663,Kasterlee,51.24118,4.96651,BE,VLG,17765,22,Europe/Brussels,2/10/11
2794730,Kapellen,51.31377,4.43539,BE,VLG,26410,8,Europe/Brussels,2/11/11
2794788,Kalmthout,51.38442,4.47556,BE,VLG,17485,21,Europe/Brussels,2/11/11
2795009,Izegem,50.91396,3.21378,BE,VLG,26382,18,Europe/Brussels,1/18/12
2795100,Ieper,50.85114,2.88569,BE,VLG,35089,24,Europe/Brussels,4/11/13
2795113,Huy,50.51894,5.23284,BE,WAL,19973,75,Europe/Brussels,3/17/11
2795261,Houthalen,51.03427,5.37429,BE,VLG,30050,64,Europe/Brussels,2/23/11
2795398,Hoogstraten,51.40029,4.76034,BE,VLG,18524,21,Europe/Brussels,1/18/12
2795730,Hoboken,51.17611,4.34844,BE,VLG,34443,12,Europe/Brussels,2/7/11
2795800,Heusden,51.03664,5.28013,BE,VLG,31017,39,Europe/Brussels,2/23/11
2795908,Herzele,50.88681,3.89014,BE,VLG,16523,58,Europe/Brussels,1/18/12
2795912,Herve,50.64083,5.79353,BE,WAL,16544,300,Europe/Brussels,1/18/12
2795930,Herstal,50.66415,5.62346,BE,WAL,36503,81,Europe/Brussels,3/14/11
2796009,Herentals,51.17655,4.83248,BE,VLG,25912,16,Europe/Brussels,1/18/12
2796012,Herent,50.90861,4.67056,BE,VLG,19218,27,Europe/Brussels,2/4/11
2796132,Helchteren,51.05591,5.38244,BE,VLG,30050,72,Europe/Brussels,2/23/11
2796153,Heist-op-den-Berg,51.07537,4.72827,BE,VLG,37873,36,Europe/Brussels,6/7/13
2796491,Hasselt,50.93106,5.33781,BE,VLG,69222,42,Europe/Brussels,2/23/11
2796542,Harelbeke,50.85343,3.30935,BE,VLG,25978,16,Europe/Brussels,1/18/12
2796637,Hamme,51.09822,4.13705,BE,VLG,22891,6,Europe/Brussels,1/18/12
2796696,Halle,50.73385,4.23454,BE,VLG,34479,34,Europe/Brussels,2/12/11
2796833,Haaltert,50.90634,4.00093,BE,VLG,17129,43,Europe/Brussels,1/18/12
2797114,Grimbergen,50.93409,4.37213,BE,VLG,33561,29,Europe/Brussels,2/4/11
2797638,Geraardsbergen,50.77343,3.88223,BE,VLG,30807,32,Europe/Brussels,1/18/12
2797656,Gent,51.05,3.71667,BE,VLG,231493,10,Europe/Brussels,6/24/08
2797670,Genk,50.965,5.50082,BE,VLG,63666,66,Europe/Brussels,1/18/12
2797713,Gembloux,50.56149,4.69889,BE,WAL,21676,158,Europe/Brussels,3/25/11
2797779,Geel,51.16557,4.98917,BE,VLG,34697,22,Europe/Brussels,2/10/11
2798023,Frameries,50.40578,3.89603,BE,WAL,20598,113,Europe/Brussels,1/29/10
2798297,Fleurus,50.48351,4.55006,BE,WAL,22080,158,Europe/Brussels,8/1/11
2798301,Fleron,50.61516,5.68062,BE,WAL,15994,258,Europe/Brussels,5/13/13
2798307,Flemalle-Haute,50.59994,5.44471,BE,WAL,25144,175,Europe/Brussels,3/15/11
2798551,Evergem,51.1053,3.704,BE,VLG,31615,7,Europe/Brussels,1/18/12
2798573,Eupen,50.6279,6.03647,BE,WAL,18029,298,Europe/Brussels,3/21/11
2798615,Essen,51.46272,4.45393,BE,VLG,16754,16,Europe/Brussels,10/10/09
2798987,Eeklo,51.18703,3.55654,BE,VLG,19116,6,Europe/Brussels,3/5/13
2799007,Edegem,51.15662,4.44504,BE,VLG,21839,17,Europe/Brussels,1/18/12
2799090,Duffel,51.09554,4.50903,BE,VLG,16011,5,Europe/Brussels,2/10/11
2799226,Dour,50.39583,3.77792,BE,WAL,16861,93,Europe/Brussels,1/18/09
2799365,Dilbeek,50.84799,4.25972,BE,VLG,39482,84,Europe/Brussels,1/18/12
2799369,Diksmuide,51.03248,2.86384,BE,VLG,15515,9,Europe/Brussels,3/5/13
2799397,Diest,50.98923,5.05062,BE,VLG,22516,22,Europe/Brussels,2/18/11
2799412,Diepenbeek,50.90769,5.41875,BE,VLG,17699,50,Europe/Brussels,7/31/10
2799496,Destelbergen,51.05952,3.79899,BE,VLG,16853,6,Europe/Brussels,1/18/12
2799645,Dendermonde,51.02869,4.10106,BE,VLG,43055,6,Europe/Brussels,3/5/13
2799647,Denderleeuw,50.88506,4.07601,BE,VLG,16969,17,Europe/Brussels,2/3/11
2799746,Deinze,50.98175,3.53096,BE,VLG,27777,10,Europe/Brussels,1/18/12
2800063,Courcelles,50.46379,4.3747,BE,WAL,29473,160,Europe/Brussels,7/21/11
2800220,Colfontaine,50.4141,3.85569,BE,WAL,19964,79,Europe/Brussels,1/20/09
2800438,Chaudfontaine,50.5828,5.6341,BE,WAL,20960,218,Europe/Brussels,3/14/11
2800448,Chatelet,50.40338,4.52826,BE,WAL,35238,118,Europe/Brussels,7/21/11
2800461,Chasse Royale,50.42842,3.95001,BE,WAL,0,42,Europe/Brussels,1/20/09
2800481,Charleroi,50.41136,4.44448,BE,WAL,200132,136,Europe/Brussels,7/21/11
2800866,Brussels,50.85045,4.34878,BE,BRU,1019022,28,Europe/Brussels,12/3/12
2800931,Brugge,51.20892,3.22424,BE,VLG,116709,13,Europe/Brussels,8/25/10
2801106,Brecht,51.35024,4.63829,BE,VLG,25908,23,Europe/Brussels,2/11/11
2801117,Brasschaat,51.2912,4.49182,BE,VLG,37040,10,Europe/Brussels,1/18/12
2801150,Braine-le-Comte,50.60979,4.14658,BE,WAL,20133,96,Europe/Brussels,1/18/12
2801154,Braine-l'Alleud,50.68363,4.36784,BE,WAL,37512,93,Europe/Brussels,1/31/11
2801226,Boussu,50.43417,3.7944,BE,WAL,20058,32,Europe/Brussels,1/29/10
2801447,Bornem,51.09716,4.24364,BE,VLG,19997,6,Europe/Brussels,2/10/11
2801494,Boom,51.09242,4.3717,BE,VLG,15810,10,Europe/Brussels,2/10/11
2801858,Blankenberge,51.31306,3.13227,BE,VLG,18230,6,Europe/Brussels,1/18/12
2801922,Binche,50.41155,4.16469,BE,WAL,32030,92,Europe/Brussels,1/18/12
2801924,Bilzen,50.87325,5.5184,BE,VLG,29622,53,Europe/Brussels,2/28/11
2802031,Beveren,51.21187,4.25633,BE,VLG,45179,12,Europe/Brussels,1/18/12
2802170,Beringen,51.04954,5.22606,BE,VLG,40930,39,Europe/Brussels,2/23/11
2802433,Beersel,50.76589,4.3002,BE,VLG,23228,43,Europe/Brussels,2/1/11
2802435,Beerse,51.31927,4.85304,BE,VLG,16208,27,Europe/Brussels,1/18/12
2802743,Balen,51.16837,5.17027,BE,VLG,19978,34,Europe/Brussels,2/10/11
2803010,Ath,50.62937,3.77801,BE,WAL,26681,32,Europe/Brussels,1/18/09
2803033,Asse,50.91011,4.19836,BE,VLG,28985,81,Europe/Brussels,1/18/12
2803073,Arlon,49.68333,5.81667,BE,WAL,26179,421,Europe/Brussels,6/16/08
2803138,Antwerpen,51.21989,4.40346,BE,VLG,459805,10,Europe/Brussels,10/10/12
2803160,Ans,50.6623,5.52029,BE,WAL,27297,181,Europe/Brussels,3/14/11
2803204,Andenne,50.48941,5.09513,BE,WAL,24055,78,Europe/Brussels,1/18/12
2803429,Aarschot,50.98715,4.83695,BE,VLG,27656,14,Europe/Brussels,1/18/12
2803443,Aalter,51.09017,3.44693,BE,VLG,18802,17,Europe/Brussels,1/18/12
2803448,Aalst,50.93604,4.0355,BE,VLG,77534,12,Europe/Brussels,3/5/13
2353197,Zorgo,12.24922,-0.61527,BF,11,23892,312,Africa/Ouagadougou,2/8/13
2353688,Yako,12.9591,-2.26075,BF,10,22904,332,Africa/Ouagadougou,2/8/13
2354176,Tougan,13.0725,-3.0694,BF,1,17590,300,Africa/Ouagadougou,6/5/12
2354349,Titao,13.76667,-2.06667,BF,10,19131,326,Africa/Ouagadougou,8/2/10
2354675,Tenkodogo,11.78,-0.36972,BF,4,37658,304,Africa/Ouagadougou,1/18/12
2356228,Reo,12.31963,-2.47094,BF,6,37535,300,Africa/Ouagadougou,2/8/13
2356454,Po,11.16972,-1.145,BF,7,17924,319,Africa/Ouagadougou,6/5/12
2357043,Ouahigouya,13.58278,-2.42158,BF,10,61096,328,Africa/Ouagadougou,8/10/10
2357048,Ouagadougou,12.36566,-1.53388,BF,3,1086505,299,Africa/Ouagadougou,6/8/12
2357163,Nouna,12.72938,-3.86305,BF,1,29048,277,Africa/Ouagadougou,2/8/13
2358100,Manga,11.66361,-1.07306,BF,7,15173,286,Africa/Ouagadougou,2/2/12
2358382,Leo,11.10033,-2.10654,BF,6,26884,349,Africa/Ouagadougou,1/10/13
2358738,Koupela,12.17864,-0.35103,BF,4,32052,306,Africa/Ouagadougou,2/8/13
2358946,Koudougou,12.25263,-2.36272,BF,6,87347,303,Africa/Ouagadougou,2/8/13
2359142,Kongoussi,13.32583,-1.53472,BF,5,26338,330,Africa/Ouagadougou,6/5/12
2359227,Kombissiri,12.06095,-1.33355,BF,7,30137,303,Africa/Ouagadougou,2/8/13
2359317,Kokologo,12.18972,-1.88556,BF,6,25958,322,Africa/Ouagadougou,1/18/12
2359608,Kaya,13.09167,-1.08444,BF,5,39229,341,Africa/Ouagadougou,1/18/12
2360073,Hounde,11.5,-3.51667,BF,9,36593,349,Africa/Ouagadougou,6/5/12
2360238,Gourcy,13.20776,-2.35893,BF,10,16765,331,Africa/Ouagadougou,6/5/12
2360615,Garango,11.8,-0.55056,BF,4,29076,304,Africa/Ouagadougou,1/18/12
2360886,Fada N'gourma,12.06157,0.35843,BF,8,33910,298,Africa/Ouagadougou,5/18/13
2361082,Dori,14.0354,-0.0345,BF,12,37806,282,Africa/Ouagadougou,1/18/12
2361177,Djibo,14.0994,-1.62554,BF,12,22223,301,Africa/Ouagadougou,12/5/12
2361373,Diapaga,12.07305,1.78838,BF,8,26013,273,Africa/Ouagadougou,6/5/12
2361477,Dedougou,12.46338,-3.46075,BF,1,45341,302,Africa/Ouagadougou,5/18/13
2361845,Bousse,12.6576,-1.89288,BF,11,15868,344,Africa/Ouagadougou,2/8/13
2361946,Boulsa,12.66664,-0.57468,BF,5,17489,313,Africa/Ouagadougou,2/8/13
2362344,Bobo-Dioulasso,11.17715,-4.2979,BF,9,360106,423,Africa/Ouagadougou,8/10/10
2362909,Banfora,10.63333,-4.76667,BF,2,60288,299,Africa/Ouagadougou,1/18/12
2577162,Gaoua,10.29917,-3.25083,BF,13,25104,329,Africa/Ouagadougou,8/2/10
2577164,Orodara,10.94917,-4.93417,BF,9,18632,578,Africa/Ouagadougou,6/6/12
725578,Yambol,42.48333,26.5,BG,65,80116,132,Europe/Sofia,1/18/12
725712,Vratsa,43.21,23.5625,BG,64,64941,352,Europe/Sofia,1/18/12
725905,Vidin,43.99,22.8725,BG,63,54409,37,Europe/Sofia,1/18/12
725988,Velingrad,42.02724,23.99569,BG,48,24036,744,Europe/Sofia,5/28/10
725993,Veliko Turnovo,43.08124,25.62904,BG,62,66217,207,Europe/Sofia,7/1/07
726050,Varna,43.21667,27.91667,BG,61,312770,54,Europe/Sofia,1/18/12
726174,Targovishte,43.2512,26.57215,BG,60,37774,186,Europe/Sofia,6/10/13
726320,Troyan,42.89427,24.71589,BG,46,21162,389,Europe/Sofia,7/10/07
726418,Dobrich,43.56667,27.83333,BG,40,94831,214,Europe/Sofia,1/18/12
726534,Svishtov,43.61959,25.35044,BG,62,32256,69,Europe/Sofia,2/28/13
726546,Svilengrad,41.76667,26.2,BG,43,19279,58,Europe/Sofia,1/18/12
726848,Stara Zagora,42.43278,25.64194,BG,59,143431,205,Europe/Sofia,1/18/12
726872,Dupnitsa,42.26667,23.11667,BG,45,34764,512,Europe/Sofia,1/18/12
727011,Sofia,42.69751,23.32415,BG,42,1152556,562,Europe/Sofia,6/16/11
727030,Smolyan,41.58528,24.69194,BG,57,32069,1129,Europe/Sofia,1/18/12
727079,Sliven,42.68583,26.32917,BG,56,96368,271,Europe/Sofia,1/18/12
727221,Silistra,44.11667,27.26667,BG,55,39715,27,Europe/Sofia,1/18/12
727233,Shumen,43.27064,26.92286,BG,54,87283,237,Europe/Sofia,10/21/08
727337,Sevlievo,43.02583,25.11361,BG,41,24582,195,Europe/Sofia,1/18/12
727447,Sandanski,41.56667,23.28333,BG,38,26459,246,Europe/Sofia,1/18/12
727462,Samokov,42.33333,23.55,BG,58,26765,949,Europe/Sofia,1/18/12
727523,Ruse,43.85639,25.97083,BG,53,156238,49,Europe/Sofia,1/18/12
727696,Razgrad,43.53333,26.51667,BG,52,38285,197,Europe/Sofia,1/18/12
727791,Rakovski,42.3,24.96667,BG,51,15782,193,Europe/Sofia,1/18/12
728075,Popovo,43.35,26.23333,BG,60,16571,190,Europe/Sofia,1/18/12
728193,Plovdiv,42.15,24.75,BG,51,340494,169,Europe/Sofia,1/18/12
728203,Pleven,43.41667,24.61667,BG,50,118675,97,Europe/Sofia,1/18/12
728288,Petrich,41.4,23.21667,BG,38,30308,158,Europe/Sofia,1/18/12
728317,Peshtera,42.03333,24.3,BG,48,18676,440,Europe/Sofia,1/18/12
728330,Pernik,42.6,23.03333,BG,49,82467,712,Europe/Sofia,1/18/12
728378,Pazardzhik,42.2,24.33333,BG,48,75977,213,Europe/Sofia,2/18/07
728448,Panagyurishte,42.5,24.18333,BG,48,19389,526,Europe/Sofia,1/18/12
728742,Nova Zagora,42.48333,26.01667,BG,56,24340,130,Europe/Sofia,1/18/12
729114,Montana,43.4125,23.225,BG,47,47445,148,Europe/Sofia,1/18/12
729559,Lovech,43.13333,24.71667,BG,46,42211,179,Europe/Sofia,1/18/12
729581,Lom,43.81389,23.23611,BG,47,26594,62,Europe/Sofia,1/18/12
729730,Kyustendil,42.28389,22.69111,BG,45,48286,519,Europe/Sofia,1/18/12
729794,Kurdzhali,41.65,25.36667,BG,44,51e3,278,Europe/Sofia,1/18/12
730435,Haskovo,41.93415,25.55557,BG,43,79699,195,Europe/Sofia,5/8/13
730442,Kharmanli,41.93333,25.9,BG,43,18931,74,Europe/Sofia,1/18/12
730496,Kazanluk,42.61667,25.4,BG,59,55196,366,Europe/Sofia,1/18/12
730559,Karnobat,42.65,26.98333,BG,39,19709,208,Europe/Sofia,1/18/12
730565,Karlovo,42.63333,24.8,BG,51,19958,406,Europe/Sofia,1/18/12
731108,Gotse Delchev,41.56667,23.73333,BG,38,20471,535,Europe/Sofia,1/18/12
731233,Gorna Oryakhovitsa,43.12778,25.70167,BG,62,38553,146,Europe/Sofia,1/18/12
731549,Gabrovo,42.87472,25.33417,BG,41,66175,538,Europe/Sofia,1/18/12
732263,Dimitrovgrad,42.05,25.6,BG,43,43288,111,Europe/Sofia,1/18/12
732452,Chirpan,42.2,25.33333,BG,59,17243,195,Europe/Sofia,4/5/07
732491,Cherven Bryag,43.26667,24.1,BG,50,21688,195,Europe/Sofia,4/5/07
732770,Burgas,42.50606,27.46781,BG,39,195966,36,Europe/Sofia,1/18/12
733014,Botevgrad,42.9,23.78333,BG,58,20909,363,Europe/Sofia,4/5/07
733191,Blagoevgrad,42.01667,23.1,BG,38,71306,390,Europe/Sofia,1/18/12
733264,Berkovitsa,43.23611,23.12583,BG,47,15027,412,Europe/Sofia,1/18/12
733579,Aytos,42.7,27.25,BG,39,20986,89,Europe/Sofia,1/18/12
733618,Asenovgrad,42.01667,24.86667,BG,51,52170,226,Europe/Sofia,1/18/12
290104,Sitrah,26.15472,50.62056,BH,19,37657,5,Asia/Bahrain,8/6/13
290187,Madinat `Isa,26.17361,50.54778,BH,19,38090,7,Asia/Bahrain,8/6/13
290215,Jidd Hafs,26.21861,50.54778,BH,16,31735,6,Asia/Bahrain,1/18/12
290247,Madinat Hamad,26.11528,50.50694,BH,18,52718,35,Asia/Bahrain,8/6/13
290269,Dar Kulayb,26.06861,50.50389,BH,18,65466,10,Asia/Bahrain,8/6/13
290332,Al Muharraq,26.25722,50.61194,BH,15,97458,7,Asia/Bahrain,6/27/13
290340,Manama,26.21536,50.5832,BH,16,147074,5,Asia/Bahrain,3/16/13
385038,Ar Rifa',26.13,50.555,BH,19,79550,43,Asia/Bahrain,8/7/13
422232,Makamba,-4.1348,29.804,BI,17,19642,1476,Africa/Bujumbura,1/19/12
423328,Bururi,-3.94877,29.62438,BI,10,19740,1857,Africa/Bujumbura,8/3/10
425378,Bujumbura,-3.3822,29.3644,BI,24,331700,805,Africa/Bujumbura,1/19/12
425551,Muramvya,-3.2682,29.6079,BI,22,18041,1878,Africa/Bujumbura,4/5/13
426272,Gitega,-3.4264,29.9308,BI,13,23167,1712,Africa/Bujumbura,1/19/12
426700,Ruyigi,-3.47639,30.24861,BI,21,38458,1596,Africa/Bujumbura,1/19/12
430569,Ngozi,-2.9075,29.8306,BI,19,21506,1824,Africa/Bujumbura,6/6/13
430952,Kayanza,-2.9221,29.6293,BI,15,19443,1918,Africa/Bujumbura,1/19/12
431748,Muyinga,-2.8451,30.3414,BI,18,71076,1757,Africa/Bujumbura,1/19/12
433635,Rutana,-3.9279,29.992,BI,20,20893,1792,Africa/Bujumbura,1/19/12
2391377,Tchaourou,8.88649,2.59752,BJ,10,20971,332,Africa/Porto-Novo,10/18/12
2391455,Tanguieta,10.62118,1.26651,BJ,8,19833,242,Africa/Porto-Novo,1/18/12
2391893,Save,8.03424,2.4866,BJ,11,75970,190,Africa/Porto-Novo,5/18/13
2391895,Savalou,7.92807,1.97558,BJ,11,30187,181,Africa/Porto-Novo,1/18/12
2392009,Sakete,6.73618,2.65866,BJ,17,30111,80,Africa/Porto-Novo,1/18/12
2392087,Porto-Novo,6.49646,2.60359,BJ,16,234168,20,Africa/Porto-Novo,3/4/11
2392108,Pobe,6.98008,2.6649,BJ,17,32983,136,Africa/Porto-Novo,10/18/12
2392204,Parakou,9.33716,2.63031,BJ,10,163753,369,Africa/Porto-Novo,1/18/12
2392308,Ouidah,6.36307,2.08506,BJ,9,83503,17,Africa/Porto-Novo,1/18/12
2392505,Nikki,9.94009,3.21075,BJ,10,54009,403,Africa/Porto-Novo,1/18/12
2392601,Natitingou,10.30416,1.37962,BJ,8,80892,450,Africa/Porto-Novo,1/18/12
2392837,Malanville,11.86819,3.38327,BJ,8,37117,164,Africa/Porto-Novo,4/25/12
2392897,Lokossa,6.63869,1.71674,BJ,15,86971,47,Africa/Porto-Novo,1/18/12
2393551,Ketou,7.36332,2.59978,BJ,17,22341,103,Africa/Porto-Novo,10/18/12
2393693,Kandi,11.13417,2.93861,BJ,7,109701,294,Africa/Porto-Novo,1/18/12
2394545,Dogbo,6.81667,1.78333,BJ,12,41312,68,Africa/Porto-Novo,1/17/06
2394560,Djougou,9.70853,1.66598,BJ,13,237040,444,Africa/Porto-Novo,8/17/13
2394711,Dassa-Zoume,7.75,2.18333,BJ,11,21672,156,Africa/Porto-Novo,10/18/12
2394814,Cove,7.22097,2.34017,BJ,18,38566,117,Africa/Porto-Novo,10/18/12
2394819,Cotonou,6.36536,2.41833,BJ,14,690584,7,Africa/Porto-Novo,1/18/12
2394824,Come,6.40764,1.88198,BJ,15,29208,29,Africa/Porto-Novo,10/18/12
2395049,Bohicon,7.17826,2.0667,BJ,18,125092,166,Africa/Porto-Novo,10/18/12
2395182,Bembereke,10.22827,2.66335,BJ,10,24006,445,Africa/Porto-Novo,1/18/12
2395261,Bassila,9.00814,1.6654,BJ,13,23616,388,Africa/Porto-Novo,10/18/12
2395317,Banikoara,11.29845,2.43856,BJ,7,22487,312,Africa/Porto-Novo,1/18/12
2395568,Aplahoue,6.93333,1.68333,BJ,12,19862,124,Africa/Porto-Novo,10/18/12
2395635,Allada,6.66547,2.15138,BJ,9,20094,93,Africa/Porto-Novo,10/18/12
2395914,Abomey-Calavi,6.44852,2.35566,BJ,9,385755,11,Africa/Porto-Novo,10/18/12
2395915,Abomey,7.18286,1.99119,BJ,18,82154,228,Africa/Porto-Novo,1/18/12
3579132,Gustavia,17.89618,-62.84978,BL,0,5988,6,America/St_Barthelemy,3/31/09
3573197,Hamilton,32.29149,-64.77797,BM,3,902,0,Atlantic/Bermuda,12/28/10
1820071,Tutong,4.8,114.65,BN,4,19151,7,Asia/Brunei,6/27/13
1820187,Seria,4.60637,114.32476,BN,1,30097,6,Asia/Brunei,6/9/13
1820491,Kuala Belait,4.58361,114.2312,BN,1,31178,5,Asia/Brunei,6/27/13
1820906,Bandar Seri Begawan,4.94029,114.94806,BN,2,64409,16,Asia/Brunei,5/28/10
3901178,Yacuiba,-22.03799,-63.67968,BO,9,82803,597,America/La_Paz,1/24/12
3901301,Warnes,-17.5,-63.16667,BO,8,22036,332,America/La_Paz,2/2/12
3901501,Villazon,-22.08659,-65.594220000000007,BO,7,30253,3455,America/La_Paz,3/17/11
3901504,Villa Yapacani,-17.4,-63.83333,BO,8,18187,297,America/La_Paz,2/2/12
3901547,Villamontes,-21.26236,-63.46903,BO,9,18761,388,America/La_Paz,1/11/13
3902202,Tupiza,-21.44344,-65.71875,BO,7,22233,2961,America/La_Paz,1/11/13
3902377,La Santisima Trinidad,-14.83333,-64.9,BO,3,84259,159,America/La_Paz,9/27/10
3903320,Tarija,-21.53549,-64.72956,BO,9,159269,1870,America/La_Paz,1/29/10
3903987,Sucre,-19.03332,-65.26274,BO,1,224838,2798,America/La_Paz,5/30/10
3904666,Santiago del Torno,-17.98674,-63.38118,BO,8,15543,514,America/La_Paz,5/8/13
3904906,Santa Cruz de la Sierra,-17.78629,-63.18117,BO,8,1364389,433,America/La_Paz,5/11/13
3905658,San Ignacio de Velasco,-16.36667,-60.95,BO,8,23569,385,America/La_Paz,1/18/12
3905792,San Borja,-14.81667,-66.85,BO,3,19640,191,America/La_Paz,1/17/06
3906466,Riberalta,-11.00654,-66.06312,BO,3,74014,150,America/La_Paz,1/11/13
3907080,Punata,-17.54234,-65.83472,BO,2,15194,2731,America/La_Paz,5/8/13
3907584,Potosi,-19.58361,-65.75306,BO,7,141251,3967,America/La_Paz,1/18/12
3909234,Oruro,-17.98333,-67.15,BO,5,208684,3936,America/La_Paz,1/18/12
3910027,Montero,-17.33866,-63.2505,BO,8,88616,300,America/La_Paz,5/8/13
3910291,Mizque,-17.94101,-65.34016,BO,2,30481,2014,America/La_Paz,10/16/09
3911409,Llallagua,-18.42426,-66.58388,BO,7,28069,3897,America/La_Paz,1/11/13
3911925,La Paz,-16.5,-68.15,BO,4,812799,3782,America/La_Paz,7/23/12
3914839,Huanuni,-18.289,-66.83583,BO,5,15492,3963,America/La_Paz,1/11/13
3915350,Guayaramerin,-10.83676,-65.36136,BO,3,36008,137,America/La_Paz,9/1/11
3918937,Cotoca,-17.81667,-63.05,BO,8,18347,387,America/La_Paz,1/17/06
3919968,Cochabamba,-17.3895,-66.1568,BO,2,900414,2577,America/La_Paz,1/19/12
3919998,Cobija,-11.02671,-68.76918,BO,6,26585,200,America/La_Paz,8/21/10
3922414,Camiri,-20.03849,-63.51833,BO,8,27961,802,America/La_Paz,1/11/13
3513563,Kralendijk,12.15,-68.26667,BQ,BO,3081,4,America/Kralendijk,4/30/13
3384986,Vitoria do Mearim,-3.46222,-44.87056,BR,13,15775,15,America/Fortaleza,8/3/12
3384987,Vitoria de Santo Antao,-8.11806,-35.29139,BR,30,107383,156,America/Recife,8/3/12
3385022,Viseu,-1.19667,-46.14,BR,16,18958,13,America/Belem,8/3/12
3385077,Conde,-7.25972,-34.9075,BR,17,15859,116,America/Fortaleza,8/3/12
3385088,Vigia,-0.85833,-48.14167,BR,16,29229,6,America/Belem,8/3/12
3385106,Vicosa do Ceara,-3.56222,-41.09222,BR,6,16636,719,America/Fortaleza,8/3/12
3385109,Vicosa,-9.37139,-36.24083,BR,2,19573,227,America/Maceio,8/3/12
3385122,Viana,-3.22028,-45.00361,BR,13,26689,13,America/Fortaleza,8/3/12
3385467,Varzea Alegre,-5.35,-40.38333,BR,6,21841,320,America/Fortaleza,8/3/12
3385504,Varjota,-4.19444,-40.47667,BR,6,16462,187,America/Fortaleza,8/3/12
3385538,Vargem Grande,-3.54306,-43.91583,BR,13,21419,44,America/Fortaleza,8/3/12
3385592,Valenca do Piaui,-6.4075,-41.74556,BR,20,15881,336,America/Fortaleza,8/3/12
3385742,Uniao dos Palmares,-9.16278,-36.03194,BR,2,41178,154,America/Maceio,8/3/12
3385745,Uniao,-4.58583,-42.86417,BR,20,15677,60,America/Fortaleza,8/3/12
3385922,Tuntum,-5.25806,-44.64889,BR,13,16402,109,America/Fortaleza,8/3/12
3385935,Tucurui,-3.76611,-49.6725,BR,16,76337,45,America/Belem,8/3/12
3385980,Tucuma,-0.18333,-50.05,BR,16,15030,13,America/Belem,8/3/12
3386042,Trindade,-7.76194,-40.26778,BR,30,19313,523,America/Recife,8/3/12
3386177,Trairi,-3.27778,-39.26889,BR,6,23126,9,America/Fortaleza,8/3/12
3386264,Toritama,-8.00667,-36.05667,BR,30,23940,356,America/Recife,8/3/12
3386279,Tome Acu,-2.41889,-48.15222,BR,16,34053,21,America/Belem,8/3/12
3386361,Timon,-5.09417,-42.83667,BR,13,124427,76,America/Fortaleza,8/3/12
3386372,Timbiras,-4.25528,-43.94056,BR,13,17875,36,America/Fortaleza,8/3/12
3386396,Timbauba,-7.50528,-35.31833,BR,30,45121,136,America/Recife,8/3/12
3386449,Tiangua,-3.73222,-40.99167,BR,6,45696,773,America/Fortaleza,8/3/12
3386496,Teresina,-5.08917,-42.80194,BR,20,744512,87,America/Fortaleza,8/3/12
3386567,Sao Joao dos Inhamuns,-6,-40.28333,BR,6,29188,405,America/Fortaleza,8/3/12
3386931,Tamandare,-8.75632,-35.09995,BR,30,17954,12,America/Recife,8/3/12
3387082,Tabira,-7.59083,-37.53944,BR,30,16926,571,America/Recife,8/3/12
3387115,Surubim,-7.83306,-35.75472,BR,30,34580,377,America/Recife,8/3/12
3387202,Sousa,-6.75917,-38.22806,BR,17,47927,229,America/Fortaleza,8/3/12
3387204,Soure,-0.71667,-48.52333,BR,16,18212,17,America/Belem,8/3/12
3387266,Solanea,-6.755,-35.54,BR,17,17030,188,America/Fortaleza,8/3/12
3387296,Sobral,-3.68611,-40.34972,BR,6,157996,75,America/Fortaleza,8/3/12
3387604,Sirinhaem,-8.59083,-35.11611,BR,30,40852,43,America/Recife,4/16/12
3387663,Sertania,-8.07361,-37.26444,BR,30,18190,558,America/Recife,8/3/12
3387786,Serra Talhada,-7.99194,-38.29833,BR,30,51203,436,America/Recife,8/3/12
3387926,Senador Pompeu,-5.58806,-39.37167,BR,6,16515,181,America/Fortaleza,8/3/12
3387987,Satuba,-9.56333,-35.82444,BR,2,15887,48,America/Maceio,8/3/12
3388145,Sao Raimundo Nonato,-9.01528,-42.69944,BR,20,19569,354,America/Fortaleza,8/3/12
3388269,Sao Miguel dos Campos,-9.78111,-36.09361,BR,2,40890,13,America/Maceio,8/3/12
3388270,Sao Miguel do Guama,-1.62667,-47.48333,BR,16,28265,9,America/Belem,8/3/12
3388318,Sao Mateus do Maranhao,-4.04167,-44.475,BR,13,28233,47,America/Fortaleza,8/3/12
3388341,Sao Luis do Quitunde,-9.31833,-35.56111,BR,2,20563,7,America/Maceio,8/3/12
3388368,Sao Luis,-2.52972,-44.30278,BR,13,917237,29,America/Fortaleza,1/26/13
3388376,Sao Lourenco da Mata,-8.00222,-35.01833,BR,30,88416,48,America/Recife,8/3/12
3388435,Sao Jose do Egito,-7.47889,-37.27444,BR,30,18218,594,America/Recife,8/3/12
3388441,Sao Jose de Ribamar,-2.56194,-44.05417,BR,13,27777,-9999,America/Fortaleza,8/3/12
3388443,Sao Jose de Mipibu,-6.07472,-35.23778,BR,22,15298,63,America/Fortaleza,8/3/12
3388615,Sao Joao dos Patos,-6.495,-43.70222,BR,13,19538,346,America/Fortaleza,8/3/12
3388714,Sao Goncalo do Amarante,-3.60722,-38.96833,BR,6,23583,23,America/Fortaleza,8/3/12
3388847,Sao Felix do Xingu,-6.64472,-51.995,BR,16,16477,199,America/Belem,8/3/12
3388868,Sao Domingos do Maranhao,-5.57583,-44.38528,BR,13,18275,179,America/Fortaleza,8/3/12
3388991,Sao Bento,-6.28333,-37.75,BR,17,24749,476,America/Fortaleza,8/3/12
3389006,Sao Bento,-2.69583,-44.82139,BR,13,17245,10,America/Fortaleza,8/3/12
3389321,Santa Rita,-7.11389,-34.97806,BR,17,119893,6,America/Fortaleza,8/3/12
3389353,Santarem,-2.44306,-54.70833,BR,16,189047,51,America/Santarem,8/3/12
3389358,Santa Quiteria do Maranhao,-3.51556,-42.54667,BR,13,17174,29,America/Fortaleza,8/3/12
3389361,Santa Quiteria,-4.33194,-40.15667,BR,6,24391,198,America/Fortaleza,8/3/12
3389384,Santana do Ipanema,-9.37833,-37.24528,BR,2,26146,240,America/Maceio,8/3/12
3389557,Santa Luzia,-7.64265,-47.21738,BR,13,22909,197,America/Fortaleza,6/5/13
3389609,Santa Ines,-3.66667,-45.38,BR,13,67424,31,America/Fortaleza,8/3/12
3389622,Santa Helena,-2.23111,-45.3,BR,13,16045,12,America/Fortaleza,8/3/12
3389652,Santa Cruz do Capibaribe,-7.9575,-36.20472,BR,30,76450,445,America/Recife,8/3/12
3389673,Santa Cruz,-6.22944,-36.02278,BR,22,27775,230,America/Fortaleza,8/3/12
3389822,Salinopolis,-0.61361,-47.35611,BR,16,40998,10,America/Belem,8/3/12
3389860,Salgueiro,-8.07417,-39.11917,BR,30,42152,420,America/Recife,8/3/12
3390160,Russas,-4.94028,-37.97583,BR,6,39465,26,America/Fortaleza,8/3/12
3390288,Rio Largo,-9.47833,-35.85333,BR,2,63387,97,America/Maceio,8/3/12
3390295,Rio Formoso,-8.66877,-35.16277,BR,30,15518,87,America/Recife,12/30/12
3390326,Ribeirao,-8.51444,-35.37778,BR,30,29818,128,America/Recife,9/27/12
3390760,Recife,-8.05389,-34.88111,BR,30,1478098,8,America/Recife,1/21/10
3390901,Quixeramobim,-5.19917,-39.29278,BR,6,34321,202,America/Fortaleza,8/3/12
3390907,Quixada,-4.97139,-39.01528,BR,6,49328,186,America/Fortaleza,8/3/12
3391220,Presidente Dutra,-5.29,-44.49,BR,13,30330,108,America/Fortaleza,8/3/12
3391360,Santana,-0.05833,-51.18167,BR,3,83927,0,America/Belem,8/3/12
3391397,Porto Calvo,-9.045,-35.39833,BR,2,17346,20,America/Maceio,8/3/12
3391412,Portel,-1.93556,-50.82111,BR,16,21315,12,America/Belem,8/3/12
3391556,Pombos,-8.14139,-35.39583,BR,30,15894,206,America/Recife,8/3/12
3391571,Pombal,-6.77028,-37.80167,BR,17,21751,185,America/Fortaleza,8/3/12
3391908,Piripiri,-4.27333,-41.77694,BR,20,44864,164,America/Fortaleza,8/3/12
3391991,Piracuruca,-3.92806,-41.70917,BR,20,18852,75,America/Fortaleza,8/3/12
3392054,Pinheiro,-2.52139,-45.0825,BR,13,38893,9,America/Fortaleza,8/3/12
3392088,Pindare Mirim,-3.60833,-45.34333,BR,13,22933,24,America/Fortaleza,8/3/12
3392126,Pilar,-9.59722,-35.95667,BR,2,30617,125,America/Maceio,8/3/12
3392167,Picos,-7.07694,-41.46694,BR,20,57495,203,America/Fortaleza,8/3/12
3392242,Petrolina,-9.39861,-40.50083,BR,30,194650,383,America/Recife,8/3/12
3392243,Jatoba,-9.18306,-38.26889,BR,30,20575,286,America/Recife,8/3/12
3392251,Pesqueira,-8.35778,-36.69639,BR,30,41896,655,America/Recife,8/3/12
3392345,Pentecoste,-3.79278,-39.27028,BR,6,19680,59,America/Fortaleza,8/3/12
3392368,Penalva,-3.29417,-45.17361,BR,13,17186,17,America/Fortaleza,8/3/12
3392431,Pedro II,-4.42472,-41.45861,BR,20,22038,608,America/Fortaleza,8/3/12
3392629,Pedra Branca,-5.45417,-39.71722,BR,6,20072,506,America/Fortaleza,8/3/12
3392734,Paulo Afonso,-9.40611,-38.21472,BR,5,85350,245,America/Bahia,8/3/12
3392740,Paulista,-7.94083,-34.87306,BR,30,289971,20,America/Recife,8/3/12
3392887,Patos,-7.02444,-37.28,BR,17,92575,243,America/Fortaleza,8/3/12
3392998,Parnamirim,-5.91556,-35.26278,BR,22,150343,56,America/Fortaleza,3/10/12
3393001,Parnaiba,-2.90472,-41.77667,BR,20,138008,9,America/Fortaleza,8/3/12
3393008,Parintins,-2.62833,-56.73583,BR,4,64428,17,America/Manaus,8/3/12
3393017,Parelhas,-6.68778,-36.6575,BR,22,16377,274,America/Fortaleza,8/3/12
3393091,Paraipaba,-3.43944,-39.14833,BR,6,18423,34,America/Fortaleza,8/3/12
3393106,Paragominas,-2.96667,-47.48333,BR,16,69613,119,America/Belem,8/3/12
3393115,Paracuru,-3.41,-39.03056,BR,6,21196,23,America/Fortaleza,8/3/12
3393264,Palmares,-8.68333,-35.59167,BR,30,41679,115,America/Recife,8/3/12
3393400,Pacatuba,-3.98417,-38.62028,BR,6,55291,72,America/Fortaleza,8/3/12
3393409,Pacajus,-4.1725,-38.46056,BR,6,41558,80,America/Fortaleza,8/3/12
3393452,Ouricuri,-7.8825,-40.08167,BR,30,29317,451,America/Recife,8/3/12
3393465,Oros,-6.24444,-38.91361,BR,6,16328,193,America/Fortaleza,8/3/12
3393471,Oriximina,-1.76556,-55.86611,BR,16,35581,34,America/Santarem,8/3/12
3393536,Olinda,-8.00889,-34.85528,BR,30,366754,37,America/Recife,8/3/12
3393764,Oeiras,-7.02528,-42.13111,BR,20,21071,181,America/Fortaleza,8/3/12
3393768,Abidos,-1.9175,-55.51806,BR,16,24970,27,America/Santarem,8/3/12
3393832,Nova Russas,-4.70667,-40.56306,BR,6,21986,239,America/Fortaleza,8/3/12
3393876,Nova Cruz,-6.47806,-35.43389,BR,22,23166,90,America/Fortaleza,8/3/12
3393972,Nazare da Mata,-7.74167,-35.22778,BR,30,26485,96,America/Recife,8/3/12
3394023,Natal,-5.795,-35.20944,BR,22,763043,32,America/Fortaleza,8/3/12
3394116,Murici,-9.30667,-35.94333,BR,2,20419,98,America/Maceio,8/3/12
3394453,Moreno,-8.11861,-35.09222,BR,30,45237,78,America/Recife,8/3/12
3394500,Morada Nova,-5.10667,-38.3725,BR,6,37389,54,America/Fortaleza,8/3/12
3394549,Monteiro,-7.88944,-37.12,BR,17,17726,600,America/Fortaleza,8/3/12
3394605,Monte Alegre,-2.00778,-54.06917,BR,16,22840,26,America/Santarem,8/3/12
3394649,Mombaca,-5.74306,-39.6275,BR,6,17065,251,America/Fortaleza,8/3/12
3394661,Moju,-1.88389,-48.76889,BR,16,21510,9,America/Belem,8/3/12
3394682,Mossoro,-5.1875,-37.34417,BR,22,202005,24,America/Fortaleza,8/3/12
3394745,Mocajuba,-2.58417,-49.50722,BR,16,16567,19,America/Belem,8/3/12
3395062,Maues,-3.38361,-57.71861,BR,4,22475,19,America/Manaus,8/3/12
3395077,Matriz de Camaragibe,-9.15167,-35.53333,BR,2,18705,10,America/Maceio,8/3/12
3395380,Mari,-7.06,-35.31944,BR,17,17535,149,America/Fortaleza,8/3/12
3395395,Marechal Deodoro,-9.71028,-35.895,BR,2,50571,12,America/Maceio,8/3/12
3395458,Maragogi,-9.01222,-35.2225,BR,2,16066,16,America/Maceio,8/3/12
3395473,Maracanau,-3.87667,-38.62556,BR,6,193529,54,America/Fortaleza,8/3/12
3395503,Maraba,-5.36861,-49.11778,BR,16,145860,101,America/Belem,8/3/12
3395717,Mamanguape,-6.83861,-35.12611,BR,17,27606,39,America/Fortaleza,8/3/12
3395981,Maceio,-9.66583,-35.73528,BR,2,954991,11,America/Maceio,1/21/10
3395998,Macau,-5.115,-36.63444,BR,22,18070,7,America/Fortaleza,8/3/12
3396016,Macapa,0.03889,-51.06639,BR,3,338936,17,America/Belem,8/3/12
3396048,Macaiba,-5.85833,-35.35389,BR,22,40015,16,America/Fortaleza,8/3/12
3396266,Limoeiro do Norte,-5.14556,-38.09806,BR,6,29449,35,America/Fortaleza,8/3/12
3396277,Limoeiro,-7.87472,-35.45028,BR,30,42328,142,America/Recife,8/3/12
3396364,Lavras da Mangabeira,-6.75333,-38.96444,BR,6,17221,241,America/Fortaleza,8/3/12
3396496,Lajedo,-8.66361,-36.32,BR,30,25261,672,America/Recife,8/3/12
3396601,Lago da Pedra,-4.28674,-45.23824,BR,13,25996,67,America/Fortaleza,1/11/13
3396769,Lagoa do Itaenga,-7.93611,-35.29028,BR,30,17719,187,America/Recife,8/3/12
3397147,Juazeiro do Norte,-7.21306,-39.31528,BR,6,225230,413,America/Fortaleza,8/3/12
3397230,Jose de Freitas,-4.75639,-42.57556,BR,20,21432,131,America/Fortaleza,8/3/12
3397277,Joao Pessoa,-7.115,-34.86306,BR,17,650883,45,America/Fortaleza,8/3/12
3397315,Joao Camara,-5.5375,-35.81972,BR,22,19885,152,America/Fortaleza,8/3/12
3397665,Jaguaruana,-4.83389,-37.78111,BR,6,21790,15,America/Fortaleza,8/3/12
3397675,Jaguaribe,-5.89056,-38.62194,BR,6,23065,127,America/Fortaleza,8/3/12
3397838,Jaboatao,-8.18028,-35.00139,BR,30,702621,88,America/Recife,8/3/12
3397851,Itupiranga,-5.13472,-49.32667,BR,16,21301,95,America/Belem,8/3/12
3397893,Itacoatiara,-3.14306,-58.44417,BR,4,64937,19,America/Manaus,8/3/12
3397898,Itaporanga,-7.30444,-38.15028,BR,17,15890,295,America/Fortaleza,8/3/12
3397904,Itapissuma,-7.77639,-34.89222,BR,30,16673,13,America/Recife,8/3/12
3397909,Itapipoca,-3.49444,-39.57861,BR,6,55784,103,America/Fortaleza,8/3/12
3397936,Itapecuru Mirim,-3.3925,-44.35861,BR,13,34943,20,America/Fortaleza,8/3/12
3397941,Itapage,-3.68667,-39.58611,BR,6,32043,267,America/Fortaleza,8/3/12
3397967,Itaituba,-4.27611,-55.98361,BR,16,64756,13,America/Santarem,7/22/13
3397969,Itaitinga,-3.96944,-38.52806,BR,6,30938,64,America/Fortaleza,8/3/12
3398003,Itabaiana,-7.32861,-35.3325,BR,17,19100,47,America/Fortaleza,8/3/12
3398076,Ipueiras,-7.03333,-40.45,BR,6,17111,558,America/Fortaleza,1/17/06
3398105,Ipubi,-7.65194,-40.14889,BR,30,16424,543,America/Recife,8/3/12
3398112,Ipu,-4.32222,-40.71083,BR,6,26678,250,America/Fortaleza,8/3/12
3398115,Ipojuca,-8.39889,-35.06389,BR,30,53364,29,America/Recife,8/3/12
3398269,Imperatriz,-5.52639,-47.49167,BR,13,218106,127,America/Fortaleza,8/3/12
3398331,Iguatu,-6.35944,-39.29861,BR,6,70380,222,America/Fortaleza,8/3/12
3398343,Igarape Miri,-1.975,-48.95972,BR,16,26837,9,America/Belem,8/3/12
3398350,Igarape Acu,-1.12889,-47.62,BR,16,24136,39,America/Belem,8/3/12
3398352,Igarassu,-7.83417,-34.90639,BR,30,86457,22,America/Recife,8/3/12
3398379,Ico,-6.40111,-38.86222,BR,6,28323,156,America/Fortaleza,8/3/12
3398450,Horizonte,-4.1,-38.48333,BR,6,51171,75,America/Fortaleza,8/3/12
3398569,Guaraciaba do Norte,-4.16694,-40.7475,BR,6,18186,902,America/Fortaleza,8/3/12
3398570,Guarabira,-6.85472,-35.49,BR,17,43749,94,America/Fortaleza,8/3/12
3398614,Guaiuba,-4.03972,-38.63722,BR,6,21820,75,America/Fortaleza,8/3/12
3398691,Gravata,-8.20111,-35.56472,BR,30,61249,458,America/Recife,8/3/12
3398706,Granja,-3.12028,-40.82611,BR,6,25879,8,America/Fortaleza,8/3/12
3398856,Grajau,-5.81944,-46.13861,BR,13,30217,163,America/Fortaleza,8/3/12
3398904,Goiana,-7.56056,-35.0025,BR,30,43980,21,America/Recife,8/3/12
3398920,Gloria do Goita,-8.00167,-35.29278,BR,30,17374,155,America/Recife,8/3/12
3399058,Garanhuns,-8.89028,-36.49278,BR,30,110085,855,America/Recife,8/3/12
3399132,Gameleira,-8.58444,-35.38667,BR,30,19423,100,America/Recife,8/3/12
3399415,Fortaleza,-3.71722,-38.54306,BR,6,24e5,18,America/Fortaleza,1/21/10
3399506,Floriano,-6.76694,-43.0225,BR,20,48587,114,America/Fortaleza,8/3/12
3399518,Floresta,-8.60111,-38.56861,BR,30,18100,321,America/Recife,8/3/12
3400558,Eusebio,-3.89,-38.45056,BR,6,37289,36,America/Fortaleza,8/3/12
3400567,Extremoz,-5.70556,-35.30722,BR,22,17991,48,America/Fortaleza,8/3/12
3400617,Estreito,-5.78333,-43.25,BR,13,17647,199,America/Fortaleza,8/3/12
3400740,Esperantina,-3.90167,-42.23361,BR,20,21044,63,America/Fortaleza,8/3/12
3400752,Esperanca,-7.03306,-35.85722,BR,17,18817,610,America/Fortaleza,8/3/12
3400804,Escada,-8.35917,-35.22361,BR,30,48083,117,America/Recife,8/3/12
3400969,Dom Pedro,-5.0375,-44.43857,BR,13,15570,136,America/Fortaleza,1/11/13
3401106,Demerval Lobao,-5.35833,-42.67639,BR,20,15265,116,America/Fortaleza,8/3/12
3401109,Delmiro Gouveia,-9.38861,-37.99917,BR,2,35259,246,America/Maceio,8/3/12
3401138,Custodia,-8.0875,-37.64306,BR,30,18107,540,America/Recife,8/3/12
3401148,Cururupu,-1.82833,-44.86833,BR,13,22007,7,America/Fortaleza,8/3/12
3401283,Currais Novos,-6.26083,-36.51778,BR,22,35560,361,America/Fortaleza,8/3/12
3401340,Cupira,-8.61667,-35.95,BR,30,19096,430,America/Recife,8/3/12
3401545,Crato,-7.23417,-39.40944,BR,6,88786,430,America/Fortaleza,8/3/12
3401548,Crateus,-5.17833,-40.6775,BR,6,52933,297,America/Fortaleza,8/3/12
3401703,Coroata,-4.13,-44.12417,BR,13,34129,37,America/Fortaleza,8/3/12
3401830,Condado,-7.58583,-35.10583,BR,30,19585,135,America/Recife,8/3/12
3401845,Conceicao do Araguaia,-8.25778,-49.26472,BR,16,27115,178,America/Araguaina,8/3/12
3401963,Colinas,-6.02583,-44.24917,BR,13,25158,142,America/Fortaleza,8/3/12
3401992,Coelho Neto,-4.25667,-43.01278,BR,13,36184,54,America/Fortaleza,8/3/12
3402000,Codo,-4.45528,-43.88556,BR,13,83288,44,America/Fortaleza,8/3/12
3402229,Chapadinha,-3.74167,-43.36028,BR,13,40804,109,America/Fortaleza,8/3/12
3402271,Cha Grande,-8.23833,-35.46167,BR,30,17112,471,America/Recife,8/3/12
3402360,Ceara Mirim,-5.63444,-35.42556,BR,22,32667,37,America/Fortaleza,8/3/12
3402383,Caxias,-4.85889,-43.35611,BR,13,148072,83,America/Fortaleza,5/30/13
3402429,Caucaia,-3.73611,-38.65306,BR,6,275019,35,America/Fortaleza,8/3/12
3402465,Catole do Rocha,-6.34389,-37.74667,BR,17,19812,303,America/Fortaleza,8/3/12
3402528,Catende,-8.66667,-35.71667,BR,30,23322,172,America/Recife,8/3/12
3402591,Castanhal,-1.29389,-47.92639,BR,16,137406,46,America/Belem,8/3/12
3402613,Cascavel,-4.13306,-38.24194,BR,6,52357,31,America/Fortaleza,8/3/12
3402655,Caruaru,-8.28333,-35.97611,BR,30,235371,568,America/Recife,3/10/12
3402721,Carpina,-7.85083,-35.25472,BR,30,70689,186,America/Recife,8/3/12
3402724,Carolina,-7.33278,-47.46944,BR,13,16228,182,America/Fortaleza,8/3/12
3403127,Capitao Poco,-1.74639,-47.05944,BR,16,32704,69,America/Belem,8/3/12
3403208,Capanema,-1.19583,-47.18083,BR,16,47766,30,America/Belem,8/3/12
3403353,Caninde,-4.35889,-39.31167,BR,6,42720,154,America/Fortaleza,8/3/12
3403362,Canguaretama,-6.38,-35.12889,BR,22,18873,6,America/Fortaleza,8/3/12
3403534,Campos Sales,-7.07444,-40.37611,BR,6,17648,567,America/Fortaleza,8/3/12
3403566,Campo Maior,-4.82778,-42.16861,BR,20,31739,128,America/Fortaleza,8/3/12
3403611,Campo Alegre,-9.78194,-36.35083,BR,2,16785,181,America/Maceio,8/3/12
3403642,Campina Grande,-7.23056,-35.88111,BR,17,348936,508,America/Fortaleza,8/3/12
3403687,Camocim,-2.90222,-40.84111,BR,6,44481,6,America/Fortaleza,8/3/12
3403697,Cameta,-2.24444,-49.49583,BR,16,45200,11,America/Belem,8/3/12
3403941,Cajueiro,-9.71667,-36.45,BR,2,15062,215,America/Maceio,8/3/12
3404020,Cajazeiras,-6.89028,-38.55528,BR,17,43913,305,America/Fortaleza,8/3/12
3404117,Caico,-6.45833,-37.09778,BR,22,54934,161,America/Fortaleza,8/3/12
3404513,Cabrobo,-8.51417,-39.31,BR,30,16096,327,America/Recife,8/3/12
3404545,Cabo,-8.28333,-35.03333,BR,30,143105,16,America/Recife,8/3/12
3404558,Cabedelo,-6.98111,-34.83389,BR,17,54839,7,America/Fortaleza,8/3/12
3404722,Buriti Bravo,-5.83722,-43.83361,BR,13,17692,227,America/Fortaleza,8/3/12
3404766,Buique,-8.62306,-37.15583,BR,30,20324,804,America/Recife,8/3/12
3404817,Breves,-1.68222,-50.48028,BR,16,46473,7,America/Belem,8/3/12
3404833,Brejo Santo,-7.49333,-38.98722,BR,6,27384,386,America/Fortaleza,8/3/12
3404862,Brejo da Madre de Deus,-8.14583,-36.37111,BR,30,27369,654,America/Recife,8/3/12
3405006,Braganca,-1.05361,-46.76556,BR,16,57163,16,America/Belem,8/3/12
3405380,Bom Conselho,-9.16972,-36.67972,BR,30,27800,655,America/Recife,8/3/12
3405616,Boa Viagem,-5.1275,-39.73222,BR,6,24671,288,America/Fortaleza,8/3/12
3405738,Bezerros,-8.23333,-35.79694,BR,30,51436,501,America/Recife,8/3/12
3405792,Benevides,-1.36139,-48.24472,BR,16,49794,31,America/Belem,8/3/12
3405812,Belo Jardim,-8.33556,-36.42417,BR,30,49922,620,America/Recife,8/3/12
3405863,Belem,-6.69167,-35.53333,BR,17,15550,140,America/Fortaleza,8/3/12
3405870,Belem,-1.45583,-48.50444,BR,16,1407737,15,America/Belem,5/6/13
3405924,Beberibe,-4.17972,-38.13056,BR,6,37025,20,America/Fortaleza,8/3/12
3405940,Bayeux,-7.125,-34.93222,BR,17,91056,12,America/Fortaleza,8/3/12
3405954,Baturite,-4.32861,-38.88472,BR,6,22417,169,America/Fortaleza,8/3/12
3406160,Barreiros,-8.81833,-35.18639,BR,30,35565,28,America/Recife,8/3/12
3406196,Barreirinhas,-2.75556,-42.82591,BR,13,17437,5,America/Fortaleza,4/1/13
3406263,Barras,-4.24444,-42.29444,BR,20,21597,89,America/Fortaleza,8/3/12
3406318,Barra do Corda,-5.50308,-45.23693,BR,13,48901,153,America/Fortaleza,1/11/13
3406429,Barcarena,-1.50583,-48.62583,BR,16,29871,9,America/Belem,8/3/12
3406442,Barbalha,-7.31111,-39.30417,BR,6,33943,422,America/Fortaleza,8/3/12
3406545,Balsas,-7.5325,-46.03556,BR,13,68056,254,America/Fortaleza,8/3/12
3406910,Bacabal,-4.29167,-44.79167,BR,13,72372,28,America/Fortaleza,8/3/12
3406961,Augusto Correa,-1.02167,-46.635,BR,16,16279,7,America/Belem,8/3/12
3406996,Atalaia,-9.50194,-36.02278,BR,2,18908,61,America/Maceio,8/3/12
3407194,Areia Branca,-4.95611,-37.13694,BR,22,18372,11,America/Fortaleza,8/3/12
3407216,Arcoverde,-8.41889,-37.05389,BR,30,57163,670,America/Recife,8/3/12
3407243,Araripina,-7.57611,-40.49833,BR,30,38569,624,America/Recife,8/3/12
3407258,Arari,-3.45361,-44.78,BR,13,16777,9,America/Fortaleza,8/3/12
3407327,Arapiraca,-9.7525,-36.66111,BR,2,166562,275,America/Maceio,8/3/12
3407357,Araguaina,-7.19111,-48.20722,BR,31,105019,237,America/Araguaina,4/3/13
3407378,Aracati,-4.56167,-37.76972,BR,6,44293,12,America/Fortaleza,8/3/12
3407407,Aquiraz,-3.90139,-38.39111,BR,6,65116,21,America/Fortaleza,8/3/12
3407440,Apodi,-5.66417,-37.79889,BR,22,16757,73,America/Fortaleza,8/3/12
3407669,Ananindeua,-1.36556,-48.37222,BR,16,433956,19,America/Belem,8/3/12
3407758,Amaraji,-8.38306,-35.4525,BR,30,16660,262,America/Recife,8/3/12
3407797,Altos,-5.03806,-42.46,BR,20,28768,192,America/Fortaleza,8/3/12
3407882,Altamira,-3.20333,-52.20639,BR,16,70888,101,America/Santarem,8/3/12
3407903,Almeirim,-1.52333,-52.58167,BR,16,20464,6,America/Santarem,8/3/12
3407980,Alenquer,-1.94167,-54.73833,BR,16,26290,32,America/Santarem,8/3/12
3408100,Alagoa Grande,-7.15833,-35.63,BR,17,16406,334,America/Fortaleza,8/3/12
3408166,Aguas Belas,-9.11139,-37.12306,BR,30,22563,378,America/Recife,8/3/12
3408175,Agua Preta,-8.7075,-35.53056,BR,30,16444,133,America/Recife,8/3/12
3408274,Afogados da Ingazeira,-7.75083,-37.63917,BR,30,25060,516,America/Recife,8/3/12
3408337,Acu,-5.57667,-36.90861,BR,22,36125,36,America/Fortaleza,8/3/12
3408343,Acopiara,-6.09528,-39.4525,BR,6,24561,319,America/Fortaleza,8/3/12
3408368,Acarau,-2.88556,-40.12,BR,6,28389,17,America/Fortaleza,8/3/12
